the_geom,the_geom_webmercator,objectid,year,dc_key,code,date_,time,race,sex,age,wound,officer_involved,offender_injured,offender_deceased,location,latino,point_x,point_y,dist,inside,outside,fatal,lat,lng
0101000020E6100000D16541934AD052C05C8793C9E3FC4340,0101000020110F0000BA341498F4F45FC12B83CAFA728C5241,332205,2018.0,201819071190,0411,2018-08-30,17:10:00,B,M,19,chest,N,N,N,900 BLOCK Flanders Rd,0,-75.25455171,39.97570152,19,0,1,0,39.97570152,-75.25455171
0101000020E6100000D16541934AD052C05C8793C9E3FC4340,0101000020110F0000BA341498F4F45FC12B83CAFA728C5241,332206,2018.0,201819071199,0411,2018-08-30,17:10:00,B,M,21,multi,N,N,N,900 BLOCK Flanders Rd,0,-75.25455171,39.97570152,19,0,1,0,39.97570152,-75.25455171
0101000020E61000005C65F9FCA8C952C09F856F27B2024440,0101000020110F00006DC35712B1E95FC1A05D90D9E2925241,332207,2018.0,201839056000,0411,2018-08-10,22:09:00,B,M,34,back,N,N,N,1500 BLOCK BLAVIS ST,0,-75.15093922,40.02106183,39,0,1,0,40.02106183,-75.15093922
0101000020E610000015B22DE2FFCC52C04CFEA346D3FB4340,0101000020110F0000198088325DEF5FC15C7708FA448B5241,332208,2018.0,201816035756,0411,2018-08-11,23:24:00,B,M,20,arm,N,N,N,4000 BLOCK BROWN ST,0,-75.20311789,39.96738513,16,0,1,0,39.96738513,-75.20311789
0101000020E61000001E999A468BCB52C01FE7892909074440,0101000020110F0000A8972349E4EC5FC1BE32C24AB3975241,332209,2018.0,201814068368,0411,2018-08-12,21:02:00,B,F,31,back,N,N,N,6600 BLOCK CHEW AVE,0,-75.18037572,40.05496711,14,0,1,0,40.05496711,-75.18037572
0101000020E61000000ED27C6342C852C0C2C77962CAFE4340,0101000020110F000085AA47F44FE75FC147AE13548E8E5241,332210,2018.0,201826034487,0411,2018-08-12,17:35:00,W,M,19,multi,N,N,N,100 BLOCK E LEHIGH AVE,1,-75.12905204,39.99055129,26,0,1,0,39.99055129,-75.12905204
0101000020E610000021D3F3D196C852C0639FBE6DBF064440,0101000020110F000085A09F5EDFE75FC12B55F77A61975241,332211,2018.0,201835068378,0411,2018-08-12,21:10:00,B,M,20,chest,N,N,N,1000 BLOCK 66TH AVE,0,-75.13420533,40.05271695,35,0,1,0,40.05271694,-75.13420533
0101000020E610000021D3F3D196C852C0639FBE6DBF064440,0101000020110F000085A09F5EDFE75FC12B55F77A61975241,332212,2018.0,201835068379,0411,2018-08-12,21:10:00,B,M,19,arm,N,N,N,1000 BLOCK 66TH AVE,0,-75.13420533,40.05271695,35,0,1,0,40.05271694,-75.13420533
0101000020E610000021D3F3D196C852C0639FBE6DBF064440,0101000020110F000085A09F5EDFE75FC12B55F77A61975241,332213,2018.0,201835068383,0411,2018-08-12,21:10:00,B,M,19,leg,N,N,N,1000 BLOCK 66TH AVE,0,-75.13420533,40.05271695,35,0,1,0,40.05271694,-75.13420533
0101000020E6100000CA439550B0C952C03FA1A6AF4A004440,0101000020110F0000F4D24084BDE95FC1DED8DE5F38905241,332214,2018.0,201825063408,0411,2018-08-13,22:01:00,B,M,23,head,N,N,N,3200 BLOCK N PARK AV,0,-75.1513864,40.00227924,25,0,1,0,40.00227924,-75.1513864
0101000020E610000039B1EA20ADC352C04BC4213C56024440,0101000020110F00002232D10D87DF5FC113FA4BE97C925241,332215,2018.0,201815073204,0411,2018-08-13,21:17:00,W,M,19,multi,N,N,N,4700 BLOCK BENNER ST,0,-75.05744193,40.01825668,15,0,1,0,40.01825668,-75.05744193
0101000020E61000005478A76DC9CE52C05D81CFACF8F84340,0101000020110F0000CDA4216266F25FC1400F977D1B885241,332216,2018.0,201812059526,0411,2018-08-14,22:12:00,B,M,37,multi,N,N,N,900 BLOCK S CONESTOGA ST,0,-75.23104421,39.94508896,12,0,1,0,39.94508896,-75.23104421
0101000020E61000001C105B5926CC52C0DD644CA87DF64340,0101000020110F0000E8BC76B1EBED5FC1BF45581F5C855241,332217,2018.0,201801031193,0411,2018-08-14,21:27:00,B,M,31,leg,N,N,N,2600 BLOCK JACKSON ST,0,-75.18984064,39.92570976,01,0,1,0,39.92570976,-75.18984064
0101000020E61000000E213A46AAC752C09B992EFE15034440,0101000020110F0000555FA1924DE65FC128267C9351935241,332218,2018.0,201825063920,0411,2018-08-15,21:00:00,W,M,22,back,N,N,N,300 BLOCK E ROCKLAND ST,1,-75.11976772,40.02410867,25,0,1,0,40.02410867,-75.11976772
0101000020E6100000E388F71427C952C03534547B47034440,0101000020110F00004400AB69D4E85FC14F14AB7688935241,332219,2018.0,201835069283,0411,2018-08-15,22:55:00,B,M,25,leg,N,N,N,4800 BLOCK N MARVINE ST,0,-75.14301037,40.02561895,35,0,1,0,40.02561895,-75.14301037
0101000020E6100000D651F612BAC952C0C170F07DD8F74340,0101000020110F000078660018CEE95FC1265F9843DC865241,332220,2018.0,201803047749,0411,2018-08-15,23:34:00,B,M,24,LEG,N,N,N,900 BLOCK S 5TH ST,0,-75.15198206,39.93629431,03,0,1,0,39.93629431,-75.15198206
0101000020E6100000BBCA03262AC852C0CDFB28B892FF4340,0101000020110F0000DBF5A8C726E75FC1E9FE4F6A6C8F5241,332221,2018.0,201824071856,0411,2018-08-17,02:15:00,W,M,22,hip,N,N,N,200 BLOCK E CLEARFIELD ST,1,-75.12757254,39.99666502,24,0,1,0,39.99666502,-75.12757254
0101000020E6100000BBCA03262AC852C0CDFB28B892FF4340,0101000020110F0000DBF5A8C726E75FC1E9FE4F6A6C8F5241,332222,2018.0,201824071857,0411,2018-08-17,02:15:00,W,M,45,foot,N,N,N,200 BLOCK E CLEARFIELD ST,1,-75.12757254,39.99666502,24,0,1,0,39.99666502,-75.12757254
0101000020E6100000B8EA950D06C852C0EFF1B690CF024440,0101000020110F0000AB74DC77E9E65FC106FEC67703935241,332223,2018.0,201825064297,0411,2018-08-17,02:10:00,B,M,29,knee,N,N,N,4700 BLOCK RISING SUN AV,0,-75.12536945,40.02195939,25,0,1,0,40.02195939,-75.12536945
0101000020E61000006204E0E12ECE52C0EEAAEE2E23F84340,0101000020110F0000174412DF5FF15FC1075A51FF2E875241,332224,2018.0,201812060319,0411,2018-08-17,23:48:00,B,M,21,multi,N,N,N,1600 BLOCK S 54TH ST,0,-75.22161147,39.93857371,12,0,1,0,39.93857371,-75.22161147
0101000020E6100000D370E3791DCB52C0E3981BC267FF4340,0101000020110F0000F443A8C729EC5FC1C261ACC93C8F5241,332225,2018.0,201822064865,0411,2018-08-17,22:38:00,B,M,23,multi/head,N,N,N,2500 BLOCK W HAROLD ST,0,-75.17367408,39.99535395,22,0,1,0,39.99535395,-75.17367408
0101000020E6100000D370E3791DCB52C0E3981BC267FF4340,0101000020110F0000F443A8C729EC5FC1C261ACC93C8F5241,332226,2018.0,201822064870,0411,2018-08-17,22:38:00,B,M,24,leg,N,N,N,2500 BLOCK W HAROLD ST,0,-75.17367408,39.99535395,22,0,1,0,39.99535395,-75.17367408
0101000020E6100000BF8D8301BAC952C04FE2F75FFCFF4340,0101000020110F000015265DFACDE95FC1F108FF8CE18F5241,332227,2018.0,201825065193,0411,2018-08-20,00:23:00,B,M,25,legs,N,N,N,3100 BLOCK PARK AV,0,-75.1519779,39.99988937,25,0,1,0,39.99988937,-75.1519779
0101000020E6100000BF8D8301BAC952C04FE2F75FFCFF4340,0101000020110F000015265DFACDE95FC1F108FF8CE18F5241,332228,2018.0,201825065197,0411,2018-08-20,00:23:00,B,M,14,head,N,N,N,3100 BLOCK PARK AV,0,-75.1519779,39.99988937,25,0,1,0,39.99988937,-75.1519779
0101000020E6100000DD5AAAFB95C952C0CCC7DE2014FF4340,0101000020110F0000635620CA90E95FC14083AD13E08E5241,332229,2018.0,201822065820,0411,2018-08-20,19:32:00,B,M,24,foot,N,N,N,1100 BLOCK W OAKDALE ST,0,-75.14977924,39.99280177,22,0,1,0,39.99280177,-75.14977924
0101000020E61000009A70F959B6CB52C014FFA0C336FF4340,0101000020110F0000C8C93C742DED5FC182062479068F5241,332230,2018.0,201822065830,0411,2018-08-20,21:22:00,B,F,33,multi,N,N,N,2400 BLOCK N NAPA ST,0,-75.18300485,39.99385877,22,1,0,0,39.99385877,-75.18300485
0101000020E61000000B214A28BBC852C0EC64780505024440,0101000020110F00009D4894171DE85FC155E34CD922925241,332283,2018.0,201825038519,0411,2018-05-20,18:04:00,W,M,21,multi,N,N,N,4200 BLOCK N Fairhill St,1,-75.13642318,40.01577824,25,0,1,0,40.01577824,-75.13642318
0101000020E61000008DEB4220D5C952C030702F1FFFFD4340,0101000020110F000049B5510BFCE95FC17A5E0B04AD8D5241,332284,2018.0,201822038509,0411,2018-05-20,00:05:00,B,M,30,leg,N,N,N,2100 BLOCK N Camac St,0,-75.15363318,39.9843482,22,0,1,0,39.9843482,-75.15363318
0101000020E6100000D08636DF4CC852C075DDC62C1C044440,0101000020110F0000158DDBC261E75FC19B6C5F5F74945241,332285,2018.0,201835041923,0411,2018-05-20,02:59:00,W,M,30,chest,N,N,N,400 BLOCK Delphine St,1,-75.12969189,40.03210983,35,0,1,0,40.03210983,-75.12969189
0101000020E61000005BDAC2563DCB52C07D158D73A3004440,0101000020110F0000D627EDE65FEC5FC1BD21CFCA9A905241,332286,2018.0,201839034223,0411,2018-05-19,21:43:00,B,M,19,leg,N,N,N,3200 BLOCK N Newkirk St,0,-75.17561883,40.00498814,39,0,1,0,40.00498814,-75.17561883
0101000020E61000005BDAC2563DCB52C07D158D73A3004440,0101000020110F0000D627EDE65FEC5FC1BD21CFCA9A905241,332287,2018.0,201839034245,0411,2018-05-19,21:43:00,B,F,18,stomach,N,N,N,3200 BLOCK N Newkirk St,0,-75.17561883,40.00498814,39,0,1,0,40.00498814,-75.17561883
0101000020E6100000E96514CBADC852C00DB0A8EBFDFB4340,0101000020110F0000235A4F6406E85FC150E7E13B748B5241,332288,2018.0,201826020640,0411,2018-05-20,01:30:00,W,M,25,chest,N,N,N,0 BLOCK W Girard Ave,1,-75.1356075,39.96868654,26,0,1,0,39.96868654,-75.1356075
0101000020E6100000219BFDE45CC652C06982F2881B004440,0101000020110F0000977B284B17E45FC199AAFB1804905241,332289,2018.0,201824040991,0411,2018-05-19,16:11:00,B,M,22,thigh,N,N,N,2000 BLOCK E Glenwood Ave,0,-75.09941983,40.0008403,24,0,1,0,40.0008403,-75.09941983
,,332290,2018.0,201822038032,0411,2018-05-18,13:51:00,B,M,21,chest,N,N,N,31st & Fontain St,0,,,22,0,1,0,,
0101000020E61000005BE5AECAAAC852C064EDAD50BD044440,0101000020110F0000D3771C4B01E85FC1F68ED21D27955241,332291,2018.0,201835041559,0411,2018-05-18,22:47:00,W,M,20,thigh,N,N,N,800 BLOCK W Olney Ave,1,-75.1354243,40.03702744,35,0,1,0,40.03702744,-75.1354243
0101000020E61000005BE5AECAAAC852C064EDAD50BD044440,0101000020110F0000D3771C4B01E85FC1F68ED21D27955241,332292,2018.0,201835041560,0411,2018-05-18,22:47:00,W,M,20,arms,N,N,N,800 BLOCK W Olney Ave,0,-75.1354243,40.03702744,35,0,1,0,40.03702744,-75.1354243
0101000020E6100000B435097B26C852C070AEE5BE6A054440,0101000020110F0000EABFB58C20E75FC1AA0EFE81E7955241,332293,2018.0,201835042355,0411,2018-05-21,15:28:00,B,M,21,wrist,N,N,N,400 BLOCK W Champlost St,0,-75.12734867,40.04232012,35,0,1,0,40.04232012,-75.12734867
0101000020E61000004158B6A49DC652C0A535615683054440,0101000020110F00009E77B04685E45FC16BFD0DCA02965241,332294,2018.0,201802026201,0411,2018-05-21,14:20:00,B,M,22,leg,N,N,N,500 BLOCK Rosalie St,0,-75.10337179,40.0430706,02,0,1,0,40.0430706,-75.10337179
0101000020E610000036399DE0B2C852C04462CCA758034440,0101000020110F00000EE518070FE85FC1EB9FCE829B935241,332295,2018.0,201835042237,0411,2018-05-21,03:00:00,B,F,20,multi/head,N,N,N,600 BLOCK W Rockland St,0,-75.13591781,40.02614305,35,0,1,0,40.02614305,-75.13591781
0101000020E610000036399DE0B2C852C04462CCA758034440,0101000020110F00000EE518070FE85FC1EB9FCE829B935241,332296,2018.0,201835042238,0411,2018-05-21,03:00:00,B,M,21,multi,N,N,N,600 BLOCK W Rockland St,0,-75.13591781,40.02614305,35,0,1,0,40.02614305,-75.13591781
0101000020E61000007677748E47C852C07E9C9BFCB7FF4340,0101000020110F0000392079BB58E75FC1D8EB36BB958F5241,332297,2018.0,201825039100,0411,2018-05-22,14:25:00,W,M,15,foot,N,N,N,3100 BLOCK Front St,1,-75.12936746,39.99780233,25,0,1,0,39.99780233,-75.12936746
0101000020E6100000E25452C475CE52C06C900F9B44FA4340,0101000020110F0000B908A346D8F15FC1D20A653A8B895241,332298,2018.0,201818031557,0411,2018-05-22,16:59:00,B,M,25,thigh,N,N,N,5200 BLOCK Irving St,0,-75.22593792,39.95521868,18,0,1,0,39.95521868,-75.22593792
0101000020E61000005DD669496CC552C0412E2FC82F024440,0101000020110F00003638DF987EE25FC150DBA74452925241,332299,2018.0,201815044541,0411,2018-05-23,22:14:00,B,M,20,shoulder,N,N,N,4700 BLOCK Griscom St,0,-75.0847343,40.01708319,15,0,1,0,40.01708319,-75.0847343
0101000020E61000005DD669496CC552C0412E2FC82F024440,0101000020110F00003638DF987EE25FC150DBA74452925241,332300,2018.0,201815044582,0411,2018-05-23,22:14:00,B,M,22,back,N,N,N,4700 BLOCK Griscom St,0,-75.0847343,40.01708319,15,0,1,0,40.01708319,-75.0847343
0101000020E6100000AEE928A488CF52C0CFE77152F7F54340,0101000020110F000042B67D2DABF35FC1CA44735AC7845241,332301,2018.0,201812038149,0411,2018-05-23,22:39:00,B,M,64,arms,N,N,N,7000 BLOCK Greenway Ave,0,-75.24271492,39.92161017,12,0,1,0,39.92161017,-75.24271492
0101000020E6100000078D4746DACA52C0054367E352FD4340,0101000020110F00006EA898A1B7EB5FC188E8521DEE8C5241,332302,2018.0,201822039390,0411,2018-05-23,04:03:00,B,M,39,thigh,N,N,N,1600 BLOCK N 21st St,0,-75.16957242,39.97909205,22,0,1,0,39.97909205,-75.16957242
0101000020E6100000067A4DB4D0CE52C01BB7FBC9D6F84340,0101000020110F000045FB06BE72F25FC1A51BC1F3F5875241,332303,2018.0,201812038415,0411,2018-05-24,23:52:00,B,M,19,multi,N,N,N,5500 BLOCK WHITBY AVE,0,-75.2314883,39.94405485,12,0,1,0,39.94405484,-75.2314883
0101000020E6100000D134722722C452C02536063AE6014440,0101000020110F00007BDA64D54DE05FC10C5319B300925241,332304,2018.0,201815044957,0411,2018-05-24,22:30:00,B,M,22,multi,N,N,N,5500 BLOCK TORRESDALE AVE,0,-75.0645846,40.01483846,15,0,1,0,40.01483846,-75.0645846
0101000020E6100000E09398B172C952C00277A8BF41044440,0101000020110F000040ACD9D854E95FC1BC0EC50C9E945241,332305,2018.0,201835043589,0411,2018-05-24,22:45:00,B,M,52,leg,N,N,N,5200 BLOCK N 15TH ST,0,-75.14762535,40.03325649,35,0,1,0,40.03325649,-75.14762535
0101000020E6100000CD4409E1AECA52C0A9DA6E826F034440,0101000020110F000056BE6DEB6DEB5FC1EBD1D2DBB4935241,332306,2018.0,201839035287,0411,2018-05-24,00:03:00,B,M,43,chest,N,N,N,5000 BLOCK KNOX ST,0,-75.16692378,40.0268405,39,0,1,0,40.0268405,-75.16692377
0101000020E6100000049CD65433CD52C06C7B37ED94FC4340,0101000020110F00009F683996B4EF5FC17358A8941B8C5241,332307,2018.0,201816022185,0411,2018-05-25,10:31:00,B,M,29,abdomen,N,N,N,1100 BLOCK N 41st St,0,-75.20625802,39.97329488,16,0,1,0,39.97329488,-75.20625802
0101000020E6100000496D3D9E31C852C06C00BA5866FF4340,0101000020110F0000594EC47733E75FC181280B393B8F5241,332308,2018.0,201824042930,0411,2018-05-25,15:53:00,W,M,18,chest,N,N,N,3000 BLOCK A Street,1,-75.12802845,39.99531087,24,0,1,0,39.99531087,-75.12802845
0101000020E610000014E40C6A24CC52C013EA8E6A7DF64340,0101000020110F000084482368E8ED5FC10D0AF8DA5B855241,332309,2018.0,201801019903,0411,2018-05-26,22:34:00,B,M,45,leg,N,N,N,2600 BLOCK Jackson St,0,-75.18972255,39.92570241,01,0,1,0,39.9257024,-75.18972255
0101000020E6100000D5A7E2E7FBCF52C0484D60DF73FC4340,0101000020110F0000D00D55F76EF45FC1376CE5F2F68B5241,332310,2018.0,201819042954,0411,2018-05-27,02:07:00,B,M,51,thigh,N,N,N,600 BLOCK Atwood St,0,-75.24975011,39.97228615,19,0,1,0,39.97228615,-75.24975011
0101000020E610000064492D5270C952C0E263454751FF4340,0101000020110F0000BF7A16D150E95FC10CD1D9DD238F5241,332311,2018.0,201825040612,0411,2018-05-27,13:53:00,W,M,29,multi,N,N,N,2700 BLOCK Germantown Ave,1,-75.14748053,39.99466792,25,0,1,0,39.99466792,-75.14748053
0101000020E610000064492D5270C952C0E263454751FF4340,0101000020110F0000BF7A16D150E95FC10CD1D9DD238F5241,332312,2018.0,201825040613,0411,2018-05-27,13:53:00,W,M,21,thigh,N,N,N,2700 BLOCK Germantown Ave,1,-75.14748053,39.99466792,25,0,1,0,39.99466792,-75.14748053
0101000020E610000051D6146D73C752C0E55CCCC79CFF4340,0101000020110F000002DD5468F0E55FC11FCABE91778F5241,332313,2018.0,201825039849,0411,2018-05-25,00:46:00,B,M,33,leg,N,N,N,700 BLOCK E Allegheny Ave,0,-75.11642005,39.99697206,25,0,1,0,39.99697206,-75.11642005
0101000020E61000008B8FCB8F6ACB52C058E0D00003F74340,0101000020110F00003F03AFB7ACEC5FC10C64F0CDEF855241,332314,2018.0,201817022261,0411,2018-05-28,19:10:00,B,M,23,multi,N,N,N,1700 BLOCK S 20th St,0,-75.17837901,39.92977915,17,0,1,0,39.92977915,-75.17837901
0101000020E61000008B8FCB8F6ACB52C058E0D00003F74340,0101000020110F00003F03AFB7ACEC5FC10C64F0CDEF855241,332315,2018.0,201817022259,0411,2018-05-28,19:10:00,B,M,37,multi,N,N,N,1700 BLOCK S 20th St,0,-75.17837901,39.92977915,17,0,1,0,39.92977915,-75.17837901
0101000020E6100000587FB69B81CF52C0A65646C0F4FB4340,0101000020110F00003F32403B9FF35FC1E66693126A8B5241,332316,2018.0,201819043557,0411,2018-05-28,21:35:00,B,M,18,back,N,N,N,6100 BLOCK Callowhill St,0,-75.24228566,39.96840671,19,0,1,0,39.96840671,-75.24228566
0101000020E610000023E220007CC752C070A28E758EFF4340,0101000020110F00007AFDD6F8FEE55FC1BA6D3DB1678F5241,332317,2018.0,201824044457,0411,2018-05-29,22:29:00,B,F,60,buttocks,N,N,N,3100 BLOCK Weymouth St,0,-75.11694339,39.99653501,24,0,1,0,39.99653501,-75.11694339
0101000020E610000072FB82699AC652C0E407B663CDFF4340,0101000020110F000028169BC97FE45FC100BCA275AD8F5241,332318,2018.0,201824044491,0411,2018-05-29,20:43:00,B,M,23,arm,N,N,N,3500 BLOCK Emerald St,0,-75.10317457,39.99845549,24,0,1,0,39.99845549,-75.10317457
0101000020E610000072FB82699AC652C0E407B663CDFF4340,0101000020110F000028169BC97FE45FC100BCA275AD8F5241,332319,2018.0,201824044438,0411,2018-05-29,20:43:00,B,F,7,back,N,N,N,3500 BLOCK Emerald St,0,-75.10317457,39.99845549,24,0,1,0,39.99845549,-75.10317457
0101000020E61000005699CEF38CC952C019F57B2872FB4340,0101000020110F000018C0337381E95FC1EF308A5BD98A5241,332320,2018.0,201806023152,0411,2018-05-29,14:50:00,B,M,18,thigh,N,N,N,700 BLOCK N 7th St,0,-75.14922805,39.96442133,06,0,1,0,39.96442133,-75.14922805
0101000020E6100000295371881DC952C0041FA42310054440,0101000020110F0000B7C46531C4E85FC1347E60FE82955241,332321,2018.0,201835045335,0411,2018-05-30,15:22:00,B,M,30,multi,N,N,N,1300 BLOCK W CHEW AV,0,-75.14242755,40.03955503,35,0,1,0,40.03955503,-75.14242755
0101000020E61000008FD23AE485CA52C0BBD7832863FE4340,0101000020110F00007951574C28EB5FC15E02CCE61B8E5241,332322,2018.0,201822041481,0411,2018-05-30,21:12:00,B,M,23,multi,N,N,N,1900 BLOCK W SUSQUEHANNA AV,0,-75.16442209,39.98740107,22,0,1,0,39.98740107,-75.16442209
0101000020E6100000BE8CDE80C1CF52C07ED069CC5AFD4340,0101000020110F000094E986C30BF45FC1CE08BCE1F68C5241,332323,2018.0,201819044312,0411,2018-05-30,22:15:00,B,M,20,buttocks,N,N,N,900 BLOCK N 63RD ST,0,-75.24618551,39.97933345,19,0,1,0,39.97933345,-75.24618551
0101000020E610000052F45D9DE5C852C09B3D8EEE39064440,0101000020110F0000EB0ECD3565E85FC1520F5D5DCD965241,332324,2018.0,201835045480,0411,2018-05-30,23:31:00,B,M,30,head,N,N,N,1200 BLOCK MEDARY AV,0,-75.13901457,40.04864294,35,0,1,0,40.04864294,-75.13901457
0101000020E61000002E45A808A6C952C0D55799213CFF4340,0101000020110F00008A97A90DACE95FC17B784D6C0C8F5241,332325,2018.0,201825041592,0411,2018-05-31,02:40:00,B,M,38,multi,N,N,N,1200 BLOCK W Silver St,0,-75.1507589,39.99402256,25,0,1,0,39.99402256,-75.1507589
0101000020E61000000C10BBA54BCF52C00CD19D3700FB4340,0101000020110F000097DDCF9243F35FC132A72C1A5B8A5241,332326,2018.0,201818033880,0411,2018-05-31,18:23:00,B,M,21,leg,N,N,N,5900 BLOCK Ludlow St,0,-75.23899215,39.96094413,18,0,1,0,39.96094413,-75.23899215
0101000020E61000001F511D8255CE52C0DB70F5EFBCFA4340,0101000020110F0000BFB83D7BA1F15FC11D8ECC8D108A5241,332327,2018.0,201818034158,0411,2018-06-01,19:21:00,B,M,38,abdom,N,N,N,5100 BLOCK Ranstead St,0,-75.22396901,39.95889091,18,0,1,0,39.95889091,-75.22396901
0101000020E6100000EF5EE6221BC552C04E1CED76C5024440,0101000020110F0000562B45C1F4E15FC101C90A44F8925241,332328,2018.0,201815047893,0411,2018-06-02,00:45:00,B,M,39,leg,N,N,N,1500 BLOCK Dyre St,0,-75.07978127,40.02165114,15,0,1,0,40.02165114,-75.07978127
0101000020E610000063D5FFBD84C852C0359BA65347004440,0101000020110F0000115B94A9C0E75FC1103F5FA634905241,332329,2018.0,201825042241,0411,2018-06-02,01:40:00,W,M,17,multi,N,N,N,200 BLOCK W Ontario St,1,-75.13310194,40.00217672,25,0,1,0,40.00217672,-75.13310194
0101000020E610000063D5FFBD84C852C0359BA65347004440,0101000020110F0000115B94A9C0E75FC1103F5FA634905241,332330,2018.0,201825042242,0411,2018-06-02,01:40:00,W,M,19,buttocks,N,N,N,200 BLOCK W Ontario St,1,-75.13310194,40.00217672,25,0,1,0,40.00217672,-75.13310194
0101000020E61000001372736444CE52C07AEE6F96B3FB4340,0101000020110F0000766C8B6884F15FC1064D87DC218B5241,332331,2018.0,201816023942,0411,2018-06-02,23:40:00,B,M,19,leg,N,N,N,5100 BLOCK Reno St,0,-75.22292434,39.96641808,16,0,1,0,39.96641808,-75.22292434
0101000020E6100000B8B08FCA64CD52C0B5356434D9FA4340,0101000020110F000072526F9908F05FC14DDCEEDF2F8A5241,332332,2018.0,201816024023,0411,2018-06-03,13:50:00,B,M,19,multi,N,N,N,400 BLOCK Busti St,0,-75.20927681,39.95975356,16,0,1,0,39.95975356,-75.20927681
0101000020E61000001360790CA6CB52C0A6093E7A01F74340,0101000020110F0000E29620C311ED5FC1D8895C1DEE855241,332333,2018.0,201801020729,0411,2018-06-01,23:36:00,B,M,50,finger,N,N,N,2200 BLOCK Moore St,0,-75.18200981,39.92973259,01,0,1,0,39.92973259,-75.18200981
0101000020E6100000ED523C9114CF52C0B5F048FE58F64340,0101000020110F000018C2B303E6F25FC15F559E8433855241,332334,2018.0,201812041177,0411,2018-06-04,23:43:00,B,M,24,abdom,N,N,N,6600 BLOCK Woodland Ave,0,-75.23563033,39.92459086,12,0,1,0,39.92459086,-75.23563033
0101000020E6100000A9CC20804CCD52C0D08B45992EFB4340,0101000020110F0000B8E4CC56DFEF5FC175ECE77E8E8A5241,332335,2018.0,201816024201,0411,2018-06-04,22:29:00,B,M,15,neck,N,N,N,4200 BLOCK Haverford Ave,0,-75.20779422,39.96235958,16,0,1,0,39.96235958,-75.20779422
0101000020E6100000EF5722CCC4C952C0274BEF136EFE4340,0101000020110F000017D0F34EE0E95FC177757701288E5241,332336,2018.0,201822043022,0411,2018-06-04,12:56:00,B,M,24,multi,N,N,N,2300 BLOCK N Fawn St,0,-75.15263656,39.98773431,22,0,1,0,39.98773431,-75.15263656
0101000020E61000008EB51A6DF0C952C0F6720AB808004440,0101000020110F00000C79926A2AEA5FC18BB1843CEF8F5241,332337,2018.0,201839038735,0411,2018-06-05,14:11:00,B,M,28,leg,N,N,N,1500 BLOCK W Clearfield St,0,-75.15529945,40.00026608,39,0,1,0,40.00026608,-75.15529945
0101000020E61000008EB51A6DF0C952C0F6720AB808004440,0101000020110F00000C79926A2AEA5FC18BB1843CEF8F5241,332338,2018.0,201839038736,0411,2018-06-05,14:11:00,B,M,26,foot,N,N,N,1500 BLOCK W Clearfield St,0,-75.15529945,40.00026608,39,0,1,0,40.00026608,-75.15529945
0101000020E61000008EB51A6DF0C952C0F6720AB808004440,0101000020110F00000C79926A2AEA5FC18BB1843CEF8F5241,332339,2018.0,201839038737,0411,2018-06-05,14:11:00,B,F,21,chest,N,N,N,1500 BLOCK W Clearfield St,0,-75.15529945,40.00026608,39,0,1,0,40.00026608,-75.15529945
0101000020E6100000FBF8F84210CA52C08573D387AAFE4340,0101000020110F0000EC84F17D60EA5FC17DCE78046B8E5241,332340,2018.0,201822043636,0411,2018-06-06,18:53:00,B,M,22,buttocks,N,N,N,1500 BLOCK W York St,0,-75.15724253,39.98957918,22,0,1,0,39.98957918,-75.15724253
0101000020E6100000FBF8F84210CA52C08573D387AAFE4340,0101000020110F0000EC84F17D60EA5FC17DCE78046B8E5241,332341,2018.0,201822043650,0411,2018-06-06,18:53:00,B,M,18,back,N,N,N,1500 BLOCK W York St,0,-75.15724253,39.98957918,22,0,1,0,39.98957918,-75.15724253
0101000020E6100000FBF8F84210CA52C08573D387AAFE4340,0101000020110F0000EC84F17D60EA5FC17DCE78046B8E5241,332342,2018.0,201822043669,0411,2018-06-06,18:53:00,B,M,21,knee,N,N,N,1500 BLOCK W York St,0,-75.15724253,39.98957918,22,0,1,0,39.98957918,-75.15724253
0101000020E6100000661AEA03CBCE52C06FF70F75E1F74340,0101000020110F0000E994341469F25FC19D2DCB31E6865241,332343,2018.0,201812041629,0411,2018-06-06,15:58:00,B,M,20,multi,N,N,N,5800 BLOCK Belmar St,0,-75.23114107,39.93656791,12,0,1,0,39.93656791,-75.23114107
,,332344,2018.0,201812041738,0411,2018-06-06,22:43:00,B,M,17,hip,N,N,N,6500 BLOCK Belamr St,0,,,12,0,1,0,,
0101000020E61000004615515599C952C08523CCDDFC044440,0101000020110F00005DEEEE7A96E95FC18832299D6D955241,332345,2018.0,201835048639,0411,2018-06-10,16:59:00,B,M,26,thigh,N,N,N,1600 BLOCK Olney Ave,0,-75.14998372,40.03896687,35,0,1,0,40.03896687,-75.14998372
0101000020E61000006084BE2E22CB52C060D2736696FD4340,0101000020110F00006CDE39C631EC5FC11B0A2BF1388D5241,332346,2018.0,201822044304,0411,2018-06-09,04:43:00,B,M,31,multi,N,N,N,1700 BLOCK N 24th St,0,-75.17396134,39.98115235,22,0,1,0,39.98115235,-75.17396134
0101000020E610000094EFDFDD46CA52C06D96A2C7B5044440,0101000020110F0000B6F7833EBDEA5FC19C8DF7C11E955241,332347,2018.0,201814048317,0411,2018-06-09,05:26:00,B,M,39,head/multi,N,N,N,5200 BLOCK Belfield Ave,0,-75.16057536,40.03679748,14,0,1,0,40.03679748,-75.16057536
0101000020E610000029A0603170C852C0217DAC43E2034440,0101000020110F00003E43E2C19DE75FC17C69832334945241,332348,2018.0,201835048531,0411,2018-06-10,01:46:00,W,M,21,shoulder,N,N,N,5200 BLOCK N 5th St,1,-75.13184771,40.03034254,35,0,1,0,40.03034254,-75.13184771
0101000020E61000002EE6634E82C852C0AC2D65AE46004440,0101000020110F000083115186BCE75FC1EA7426EF33905241,332349,2018.0,201825044095,0411,2018-06-08,14:30:00,B,M,29,thigh,N,N,N,200 BLOCK W Ontario St,0,-75.13295326,40.00215702,25,0,1,0,40.00215702,-75.13295326
0101000020E610000088C6EAC16ACD52C078712C39B8FB4340,0101000020110F00008A68CDBB12F05FC1A2FA98FF268B5241,332350,2018.0,201816024928,0411,2018-06-09,06:42:00,B,M,51,multi,N,N,N,700 BLOCK N 43rd St,0,-75.20964096,39.96655955,16,0,1,0,39.96655955,-75.20964096
0101000020E61000001A10C6F4E9C352C07927D9C9E4024440,0101000020110F0000C8E02E60EEDF5FC100B75D011B935241,332351,2018.0,201815049872,0411,2018-06-08,01:50:00,B,M,18,multi,N,N,N,4300 BLOCK Benner St,0,-75.06115455,40.02260707,15,0,1,0,40.02260707,-75.06115455
0101000020E61000005F155E3806CC52C08F4ADA22A3F74340,0101000020110F000098627E1EB5ED5FC14862492AA1865241,332352,2018.0,201817024499,0411,2018-06-11,15:35:00,B,M,25,leg,N,N,N,2600 BLOCK Wilder St,0,-75.18787965,39.93466602,17,0,1,0,39.93466602,-75.18787965
0101000020E610000071F1E82DFBC452C063F6CB8AD5014440,0101000020110F0000B3170979BEE15FC1FC8AA632EE915241,332353,2018.0,201815051648,0411,2018-06-12,21:57:00,B,M,45,knee,N,N,N,4700 BLOCK Tackawanna St,0,-75.07783077,40.01432929,15,0,1,0,40.01432929,-75.07783077
0101000020E6100000FB35A330F9C852C0B4837C9688014440,0101000020110F0000E6C2F27586E85FC18BAE0BDD98915241,332354,2018.0,201825045377,0411,2018-06-12,23:14:00,B,M,19,torso,N,N,N,3900 BLOCK N Franklin St,0,-75.14020935,40.01198083,25,0,1,0,40.01198083,-75.14020935
0101000020E61000004D3781D0D7CD52C0461320F1C8FF4340,0101000020110F0000523A55FACBF05FC14BC35587A88F5241,332355,2018.0,201819048447,0411,2018-06-12,20:58:00,B,M,21,chest,N,N,N,4300 BLOCK Monument Rd,0,-75.21629727,39.99831976,19,0,1,0,39.99831976,-75.21629727
0101000020E61000004F1500A13DC552C0C17A166364024440,0101000020110F0000DF9715582FE25FC159C9179B8C925241,332356,2018.0,201815051676,0411,2018-06-13,01:05:00,B,M,29,head,N,N,N,4800 BLOCK Frankford Ave,0,-75.08188653,40.01868857,15,0,1,0,40.01868857,-75.08188653
0101000020E61000005B917F03E6C952C0272F530FA8034440,0101000020110F000020A8C5BA18EA5FC1A60C9F94F3935241,332357,2018.0,201835049495,0411,2018-06-13,12:08:00,B,F,34,leg,N,N,N,1800 BLOCK W Rockland St,0,-75.15466392,40.02856628,35,0,1,0,40.02856628,-75.15466392
0101000020E61000003CCE7EEE15CA52C0DB2DD17203F64340,0101000020110F0000413E801F6AEA5FC105B947C8D4845241,332358,2018.0,201803033465,0411,2018-06-13,13:42:00,B,M,31,ankle,N,N,N,600 BLOCK Winton St,0,-75.1575886,39.92198025,03,0,1,0,39.92198024,-75.1575886
0101000020E6100000066B39234CC852C061A052C29FFF4340,0101000020110F000022368A8360E75FC10F2B1BDF7A8F5241,332359,2018.0,201825045964,0411,2018-06-14,21:34:00,B,M,27,leg,N,N,N,3100 BLOCK N Front St,0,-75.12964707,39.99706296,25,0,1,0,39.99706296,-75.12964707
0101000020E6100000066B39234CC852C061A052C29FFF4340,0101000020110F000022368A8360E75FC10F2B1BDF7A8F5241,332360,2018.0,201825045974,0411,2018-06-14,21:34:00,W,M,19,back,N,N,N,3100 BLOCK N Front St,1,-75.12964707,39.99706296,25,0,1,0,39.99706296,-75.12964707
0101000020E6100000B9E04E1AD1C952C0325E4E6441074440,0101000020110F00007A01D735F5E95FC1234E0EAFF1975241,332442,2018.0,201814057701,0411,2018-07-09,23:20:00,B,F,39,arm,N,N,N,6700 BLOCK N Woodstock St,0,-75.15338762,40.0566831,14,0,1,0,40.0566831,-75.15338762
0101000020E6100000B0334B2362C952C0286ECB36A6054440,0101000020110F000012DCAAB938E95FC15FAE297B29965241,332443,2018.0,201835057840,0411,2018-07-09,22:37:00,B,F,22,leg,N,N,N,1500 BLOCK Widener Pl,0,-75.14661486,40.04413495,35,0,1,0,40.04413495,-75.14661486
0101000020E610000003997C3706CC52C0AB0FFB6F6BF74340,0101000020110F0000F75FFF1CB5ED5FC1877F047963865241,332444,2018.0,201817028739,0411,2018-07-09,00:41:00,B,M,16,multi,N,N,N,2500 BLOCK Tasker St,0,-75.18787944,39.93296623,17,0,1,0,39.93296623,-75.18787944
0101000020E610000003997C3706CC52C0AB0FFB6F6BF74340,0101000020110F0000F75FFF1CB5ED5FC1877F047963865241,332445,2018.0,201817028740,0411,2018-07-09,00:41:00,B,M,20,multi,N,N,N,2500 BLOCK Tasker St,0,-75.18787944,39.93296623,17,0,1,0,39.93296623,-75.18787944
0101000020E6100000D96553096AC752C04E2CCF07F4FE4340,0101000020110F000021894F75E0E55FC1DCC6967EBC8E5241,332446,2018.0,201824058529,0411,2018-07-09,23:48:00,W,M,23,stomach,N,N,N,2000 BLOCK E Stella St,1,-75.11584695,39.99182222,24,0,1,0,39.99182222,-75.11584695
0101000020E61000009A8398328DCF52C0B9B53B5A0BFB4340,0101000020110F000069C5CCEAB2F35FC1F462CE70678A5241,332447,2018.0,201818043169,0411,2018-07-10,23:37:00,B,M,16,arm,N,N,N,0 BLOCK S 61ST ST,0,-75.24299302,39.96128395,18,0,1,0,39.96128395,-75.24299302
0101000020E610000002B27C024DCA52C0029344C407084440,0101000020110F0000D07CC1ADC7EA5FC1E8A1ABCFCD985241,332448,2018.0,201814057941,0411,2018-07-10,20:40:00,B,M,34,multi,N,N,N,1700 BLOCK N MAYLAND ST,0,-75.16095031,40.06273702,14,0,1,0,40.06273702,-75.1609503
0101000020E6100000AE3E4779E0C952C04F5C2B2DE5064440,0101000020110F00009B5EC8510FEA5FC1411A035D8B975241,332449,2018.0,201835058175,0411,2018-07-10,23:50:00,B,M,33,leg,N,N,N,6500 BLOCK N LAMBERT ST,0,-75.15432579,40.05386891,35,0,1,0,40.05386891,-75.15432579
0101000020E61000005AED69A09CCB52C05782BD7004074440,0101000020110F0000980500C201ED5FC13572810DAE975241,332450,2018.0,201814058102,0411,2018-07-11,11:13:00,B,M,30,abdomen,N,N,N,6600 BLOCK Crowson St,0,-75.18143474,40.05482301,14,0,1,0,40.05482301,-75.18143473
0101000020E61000002EA93D99BDC752C0596674B4E8044440,0101000020110F00000990A1656EE65FC18541A03F57955241,332451,2018.0,201835058514,0411,2018-07-12,00:24:00,B,M,36,back,N,N,N,100 BLOCK W Grange St,0,-75.12094718,40.03835159,35,0,1,0,40.03835159,-75.12094718
0101000020E610000067ECCF6E02CA52C03D254AEFD9064440,0101000020110F0000A4F59F0049EA5FC16201D8E37E975241,332452,2018.0,201814058346,0411,2018-07-12,02:05:00,B,M,22,chest,N,N,N,6500 BLOCK Wyncote Ave,0,-75.15639849,40.05352584,14,0,1,0,40.05352584,-75.15639849
0101000020E61000006ADCBCED99CE52C098AB9B62C0F94340,0101000020110F00006F2A4AB315F25FC17FF7E2BCF8885241,332453,2018.0,201818043517,0411,2018-07-12,03:15:00,B,M,95,arm,N,N,N,5200 BLOCK Rodman St,0,-75.22814506,39.95118363,18,0,1,0,39.95118363,-75.22814506
0101000020E61000006ADCBCED99CE52C098AB9B62C0F94340,0101000020110F00006F2A4AB315F25FC17FF7E2BCF8885241,332454,2018.0,201818043523,0411,2018-07-12,03:15:00,B,M,33,chest,N,N,N,5200 BLOCK Rodman St,0,-75.22814506,39.95118363,18,0,1,0,39.95118363,-75.22814506
0101000020E6100000A3F36D032FC852C0FD9A308A33004440,0101000020110F00009B461F0B2FE75FC1A8733AB61E905241,332455,2018.0,201825054217,0411,2018-07-12,21:22:00,B,M,22,ankle,N,N,N,100 BLOCK E Ontario St,0,-75.12786947,40.00157287,25,0,1,0,40.00157287,-75.12786947
0101000020E6100000A3F36D032FC852C0FD9A308A33004440,0101000020110F00009B461F0B2FE75FC1A8733AB61E905241,332456,2018.0,201825054242,0411,2018-07-12,21:22:00,B,M,24,arm,N,N,N,100 BLOCK E Ontario St,0,-75.12786947,40.00157287,25,0,1,0,40.00157287,-75.12786947
0101000020E610000068DB9BA5C5CB52C04D531DD5DDF64340,0101000020110F0000062A566F47ED5FC11148F6A2C6855241,332457,2018.0,201801025880,0411,2018-07-12,00:01:00,B,M,19,arm,N,N,N,1900 BLOCK S 23rd St,0,-75.18393841,39.92864479,01,0,1,0,39.92864479,-75.18393841
0101000020E61000004AAE284612CA52C01273838000FF4340,0101000020110F000038100AE963EA5FC1460DDF51CA8E5241,332458,2018.0,201822054093,0411,2018-07-15,00:56:00,B,M,16,foot,N,N,N,1500 BLOCK Hazzard St,0,-75.15736536,39.99220282,22,0,1,0,39.99220282,-75.15736536
0101000020E61000005E6A4262D4C552C0457DF565A7014440,0101000020110F000017589E6A2FE35FC115945807BB915241,332459,2018.0,201815062247,0411,2018-07-13,13:59:00,W,M,28,multi,N,N,N,1400 BLOCK Imogene St,1,-75.09108788,40.01292109,15,0,1,0,40.01292109,-75.09108788
0101000020E610000031248A3D32C552C06068BFFF20034440,0101000020110F00002886E1FF1BE25FC1570462C85D935241,332460,2018.0,201815062470,0411,2018-07-14,02:45:00,B,M,17,leg,N,N,N,5200 BLOCK Saul St,0,-75.08119143,40.02444455,15,0,1,0,40.02444455,-75.08119143
0101000020E6100000D79A73115BCA52C0002B55DC17084440,0101000020110F00003E8BF58EDFEA5FC1B348BCABDF985241,332461,2018.0,201814058844,0411,2018-07-13,17:07:00,B,M,17,multi,N,N,N,1700 BLOCK E Washington Ln,0,-75.16180836,40.06322817,14,0,1,0,40.06322817,-75.16180836
0101000020E61000005793C8BA4FC752C060534A7C2CFE4340,0101000020110F0000665003C6B3E55FC12D89794CDF8D5241,332462,2018.0,201824059585,0411,2018-07-13,09:04:00,B,M,28,groin,N,N,N,2300 BLOCK E Cambria St,0,-75.11424131,39.98573259,24,0,1,0,39.98573259,-75.11424131
0101000020E610000095B290A950C752C02C19950EB5FE4340,0101000020110F0000A0949B5BB5E55FC1D33BA7AF768E5241,332463,2018.0,201824060695,0411,2018-07-16,15:41:00,W,M,24,abdomen,N,N,N,2100 BLOCK E Ann St,1,-75.11429824,39.98990042,24,0,1,0,39.98990042,-75.11429824
0101000020E6100000819BBD1ABDC652C07B558052E1FF4340,0101000020110F0000975844B7BAE45FC156A7E88EC38F5241,332464,2018.0,201824060791,0411,2018-07-16,21:45:00,B,M,31,abdomen,N,N,N,1800 BLOCK E Tioga St,0,-75.10529202,39.99906379,24,0,1,0,39.99906379,-75.10529202
0101000020E6100000819BBD1ABDC652C07B558052E1FF4340,0101000020110F0000975844B7BAE45FC156A7E88EC38F5241,332465,2018.0,201824060817,0411,2018-07-16,21:45:00,B,F,39,hand,N,N,N,1800 BLOCK E Tioga St,0,-75.10529202,39.99906379,24,0,1,0,39.99906379,-75.10529202
0101000020E6100000F66BE336F7C852C0948A0086E9FD4340,0101000020110F00001FE6E11A83E85FC18D3F5E13958D5241,332466,2018.0,201826030266,0411,2018-07-16,23:57:00,B,M,14,leg,N,N,N,2100 BLOCK N 4th St,0,-75.14008877,39.98368907,26,0,1,0,39.98368907,-75.14008877
0101000020E6100000F66BE336F7C852C0948A0086E9FD4340,0101000020110F00001FE6E11A83E85FC18D3F5E13958D5241,332467,2018.0,201826030267,0411,2018-07-16,23:57:00,B,M,14,head,N,N,N,2100 BLOCK N 4th St,0,-75.14008877,39.98368907,26,0,1,0,39.98368907,-75.14008877
0101000020E6100000F66BE336F7C852C0948A0086E9FD4340,0101000020110F00001FE6E11A83E85FC18D3F5E13958D5241,332468,2018.0,201826030259,0411,2018-07-16,23:57:00,B,M,15,foot,N,N,N,2100 BLOCK N 4th St,0,-75.14008877,39.98368907,26,0,1,0,39.98368907,-75.14008877
0101000020E6100000F66BE336F7C852C0948A0086E9FD4340,0101000020110F00001FE6E11A83E85FC18D3F5E13958D5241,332469,2018.0,201826030258,0411,2018-07-16,23:57:00,B,M,11,multi,N,N,N,2100 BLOCK N 4th St,0,-75.14008877,39.98368907,26,0,1,0,39.98368907,-75.14008877
0101000020E6100000F66BE336F7C852C0948A0086E9FD4340,0101000020110F00001FE6E11A83E85FC18D3F5E13958D5241,332470,2018.0,201826030265,0411,2018-07-16,23:57:00,B,M,24,multi,N,N,N,2100 BLOCK N 4th St,0,-75.14008877,39.98368907,26,0,1,0,39.98368907,-75.14008877
0101000020E6100000B815A9CD0BCB52C05DCDF05561064440,0101000020110F00000804CDC20BEC5FC146422615F9965241,332471,2018.0,201814060337,0411,2018-07-17,20:48:00,B,M,37,multi,N,N,N,6200 BLOCK Belfield Ave,0,-75.17259542,40.04984545,14,0,1,0,40.04984545,-75.17259542
0101000020E610000050596674F4CA52C0A1A68E3CADFE4340,0101000020110F0000FA73D219E4EB5FC102DA5F046E8E5241,332472,2018.0,201822055324,0411,2018-07-17,02:14:00,B,M,33,thigh,N,N,N,2300 BLOCK Glenwood Ave,0,-75.17117033,39.98966176,22,0,1,0,39.98966176,-75.17117033
0101000020E61000009F24B8ECEBC852C0EAE1F4C342044440,0101000020110F000059B2A3ED6FE85FC1E7BC7F2D9F945241,332473,2018.0,201835060375,0411,2018-07-17,21:49:00,B,M,28,multi,N,N,N,5300 BLOCK N 10th St,0,-75.1393997,40.03328752,35,0,1,0,40.03328752,-75.1393997
0101000020E6100000B17F645B02C552C0AEBFC2D5C3014440,0101000020110F000073472FAACAE15FC10492EA8FDA915241,332474,2018.0,201815064017,0411,2018-07-18,23:16:00,B,M,27,leg,N,N,N,1900 BLOCK Margaret St,0,-75.07826886,40.01378891,15,0,1,0,40.01378891,-75.07826886
0101000020E61000006AD296088ECF52C01AC03A1258FA4340,0101000020110F0000A1084A56B4F35FC1F8908DCBA0895241,332475,2018.0,201818045843,0411,2018-07-20,01:21:00,B,F,18,leg,N,N,N,6000 BLOCK Pine St,0,-75.24304404,39.95581272,18,1,0,0,39.95581272,-75.24304404
0101000020E61000001F37B2E19FC952C07FEC1E6EC1FE4340,0101000020110F000015B66E9AA1E95FC1F065F066848E5241,332476,2018.0,201822056520,0411,2018-07-21,00:35:00,B,M,15,multi,N,N,N,1100 BLOCK W Cumberland St,0,-75.1503834,39.99027802,22,0,1,0,39.99027802,-75.1503834
0101000020E610000006C2885CF4CA52C08BF2D43CAA094440,0101000020110F0000AFB248F1E3EB5FC1E7E5B53B9E9A5241,332477,2018.0,201814061308,0411,2018-07-20,15:42:00,B,M,17,thigh,N,N,N,1400 BLOCK E Mt Pleasant Ave,0,-75.17116464,40.07550774,14,0,1,0,40.07550774,-75.17116464
0101000020E6100000875EF368F2C452C04E4F0E55E7014440,0101000020110F0000940CBF93AFE15FC18EA3F5EC01925241,332478,2018.0,201815064670,0411,2018-07-20,18:35:00,B,M,26,chest,N,N,N,4700 BLOCK Tackawanna St,0,-75.07729553,40.0148722,15,0,1,0,40.0148722,-75.07729553
0101000020E6100000875EF368F2C452C04E4F0E55E7014440,0101000020110F0000940CBF93AFE15FC18EA3F5EC01925241,332479,2018.0,201815064788,0411,2018-07-20,18:35:00,B,M,21,chest,N,N,N,4700 BLOCK Tackawanna St,0,-75.07729553,40.0148722,15,0,1,0,40.0148722,-75.07729553
0101000020E6100000EC00804AF2CE52C03F1117C262F64340,0101000020110F00005544EECAABF25FC154830F553E855241,332480,2018.0,201812053493,0411,2018-07-22,18:43:00,B,M,17,chest,N,N,N,6500 BLOCK Gesner St,0,-75.23353827,39.92488886,12,0,1,0,39.92488886,-75.23353827
0101000020E61000003059260D7FCF52C03E4141AD92FB4340,0101000020110F00003DD568E39AF35FC19E0D5564FD8A5241,332481,2018.0,201819060271,0411,2018-07-22,12:24:00,B,M,32,foot,N,N,N,200 BLOCK N 61st St,0,-75.2421296,39.96541372,19,0,1,0,39.96541372,-75.2421296
0101000020E61000000F61DB2685CE52C0BB45A2C841FC4340,0101000020110F000078ADA268F2F15FC1818B7770BF8B5241,332482,2018.0,201819060407,0411,2018-07-22,20:30:00,B,M,38,leg,N,N,N,600 BLOCK N 53rd St,0,-75.22687694,39.97075757,19,1,0,0,39.97075756,-75.22687694
0101000020E6100000C011F6508FC652C0A7FF0F242D014440,0101000020110F00008021A5F06CE45FC12740497633915241,332483,2018.0,201824063749,0411,2018-07-25,01:30:00,B,M,31,shoulder,N,N,N,1300 BLOCK E Lycoming St,0,-75.10249733,40.00919009,24,0,1,0,40.00919009,-75.10249733
0101000020E610000095F837C328CE52C0D40351BDD6F74340,0101000020110F00000BA0F27955F15FC1C3A8AD52DA865241,332484,2018.0,201812054380,0411,2018-07-26,00:45:00,B,F,51,multi,N,N,N,1700 BLOCK S 55th St,0,-75.22123795,39.93624083,12,0,1,0,39.93624083,-75.22123795
0101000020E610000035BBE63C00CD52C0A4C086D0D6FB4340,0101000020110F00007E8FA2CC5DEF5FC15300E5E5488B5241,332485,2018.0,201816033125,0411,2018-07-26,21:20:00,B,M,47,abdomen,N,N,N,800 BLOCK N 40th St,0,-75.20313952,39.96749312,16,0,1,0,39.96749312,-75.20313952
0101000020E6100000F19A9991A8C952C0BC2620FD61014440,0101000020110F00001DFCF45BB0E95FC16624EC0F6E915241,332486,2018.0,201839052480,0411,2018-07-27,04:17:00,W,M,21,arm,N,N,N,3700 BLOCK N BROAD ST,1,-75.15091362,40.01080289,39,0,1,0,40.01080288,-75.15091362
0101000020E6100000ED523C9114CF52C0B5F048FE58F64340,0101000020110F000018C2B303E6F25FC15F559E8433855241,332487,2018.0,201812054883,0411,2018-07-28,00:07:00,B,M,20,multi,N,N,N,6600 BLOCK WOODLAND AV,0,-75.23563033,39.92459086,12,0,1,0,39.92459086,-75.23563033
0101000020E6100000ED523C9114CF52C0B5F048FE58F64340,0101000020110F000018C2B303E6F25FC15F559E8433855241,332488,2018.0,201812054895,0411,2018-07-28,00:07:00,B,M,28,multi,N,N,N,6600 BLOCK WOODLAND AV,0,-75.23563033,39.92459086,12,0,1,0,39.92459086,-75.23563033
0101000020E610000042640DEE79CE52C064A3BD0BA5FD4340,0101000020110F0000F13FE358DFF15FC16A74CE2C498D5241,332489,2018.0,201819062197,0411,2018-07-28,22:16:00,B,M,30,groin,N,N,N,5200 BLOCK PARKSIDE AV,0,-75.22619201,39.9815993,19,0,1,0,39.9815993,-75.22619201
0101000020E6100000BDA4B592ABCF52C07449EE13B4F44340,0101000020110F000083C84F83E6F35FC11F3A186A61835241,332490,2018.0,201812054926,0411,2018-07-28,03:44:00,B,M,24,leg,N,N,N,2500 BLOCK ASHFORD ST,0,-75.244847,39.91174554,12,0,1,0,39.91174554,-75.24484699
0101000020E6100000B4422EC4ECCA52C004818417B3FF4340,0101000020110F00008D989A0AD7EB5FC1A52AFB4D908F5241,332491,2018.0,201839052878,0411,2018-07-29,16:45:00,B,M,28,shoulder,N,N,N,2400 BLOCK W SOMERSET ST,0,-75.17070107,39.99765295,39,0,1,0,39.99765295,-75.17070107
0101000020E61000007C0406623CC552C009EEF60FD8034440,0101000020110F0000C826453A2DE25FC132D5ACD228945241,332492,2018.0,201815067809,0411,2018-07-29,13:52:00,W,M,28,chest,N,N,N,1400 BLOCK E CHELTENHAM AV,1,-75.08181048,40.0300312,15,0,1,0,40.0300312,-75.08181048
0101000020E6100000FF9FDC191AC452C06B583ABCF3014440,0101000020110F0000BFE7952740E05FC156B6FEAD0F925241,332493,2018.0,201815067863,0411,2018-07-29,17:17:00,B,M,31,head,N,N,N,5500 BLOCK TORRESDALE AV,0,-75.06409308,40.01525071,15,0,1,0,40.01525071,-75.06409308
0101000020E61000007F905D507CCA52C040A8E6CDBC044440,0101000020110F00004D559A0718EB5FC14886C08C26955241,332361,2018.0,201814050043,0411,2018-06-14,22:44:00,B,M,23,thigh,N,N,N,400 BLOCK E Penn St,0,-75.16383752,40.03701185,14,0,1,0,40.03701185,-75.16383752
0101000020E61000007F905D507CCA52C040A8E6CDBC044440,0101000020110F00004D559A0718EB5FC14886C08C26955241,332362,2018.0,201814050045,0411,2018-06-14,22:44:00,B,M,27,multi,N,N,N,400 BLOCK E Penn St,0,-75.16383752,40.03701185,14,0,1,0,40.03701185,-75.16383752
0101000020E61000007F905D507CCA52C040A8E6CDBC044440,0101000020110F00004D559A0718EB5FC14886C08C26955241,332363,2018.0,201814050046,0411,2018-06-14,22:44:00,B,M,41,shoulder,N,N,N,400 BLOCK E Penn St,0,-75.16383752,40.03701185,14,0,1,0,40.03701185,-75.16383752
0101000020E61000007F905D507CCA52C040A8E6CDBC044440,0101000020110F00004D559A0718EB5FC14886C08C26955241,332364,2018.0,201814050047,0411,2018-06-14,22:44:00,B,M,23,waist,N,N,N,400 BLOCK E Penn St,0,-75.16383752,40.03701185,14,0,1,0,40.03701185,-75.16383752
0101000020E6100000E011B27F20C852C08F8742F4B9034440,0101000020110F00006AFF926316E75FC1085F926D07945241,332365,2018.0,201835049954,0411,2018-06-14,19:06:00,B,M,24,thigh,N,N,N,200 BLOCK W Rubicam St,0,-75.12698357,40.02911237,35,0,1,0,40.02911237,-75.12698357
0101000020E61000003494E2FCF0C852C08413B0A144034440,0101000020110F00004EB34E8778E85FC1E4AC6C4D85935241,332366,2018.0,201835050029,0411,2018-06-14,22:46:00,B,M,27,leg,N,N,N,4800 BLOCK N Hutchinson St,0,-75.13970873,40.02553197,35,0,1,0,40.02553197,-75.13970873
0101000020E61000003494E2FCF0C852C08413B0A144034440,0101000020110F00004EB34E8778E85FC1E4AC6C4D85935241,332367,2018.0,201835050034,0411,2018-06-14,22:46:00,B,M,21,thigh,N,N,N,4800 BLOCK N Hutchinson St,0,-75.13970873,40.02553197,35,0,1,0,40.02553197,-75.13970873
0101000020E6100000BD670BA542CA52C0F1191E3505FE4340,0101000020110F000076DC9D12B6EA5FC1A85BE7C2B38D5241,332368,2018.0,201822045958,0411,2018-06-15,23:30:00,B,M,54,knee,N,N,N,1600 BLOCK Fontain St,0,-75.16031767,39.98453392,22,0,1,0,39.98453392,-75.16031767
0101000020E61000009988AF5D37CB52C0408F492D31FE4340,0101000020110F00008B49A3C155EC5FC1DB07B97FE48D5241,332369,2018.0,201822046488,0411,2018-06-16,19:05:00,B,M,29,arm,N,N,N,2500 BLOCK W Page St,0,-75.17525428,39.98587576,22,0,1,0,39.98587576,-75.17525427
0101000020E61000001D6F7694D8CA52C0AAD835AD56FE4340,0101000020110F00002DF8B6C0B4EB5FC1FB7DE1100E8E5241,332370,2018.0,201822046613,0411,2018-06-17,00:51:00,B,M,17,head,N,N,N,2200 BLOCK Edgely St,0,-75.16946899,39.98702016,22,0,1,0,39.98702016,-75.16946899
0101000020E6100000196E863C7EC952C05656C31334FC4340,0101000020110F00003940187468E95FC16939EB3FB08B5241,332371,2018.0,201826025351,0411,2018-06-17,00:47:00,B,M,29,buttocks,N,N,N,700 BLOCK W Girard Ave,0,-75.14832986,39.97033927,26,0,1,0,39.97033927,-75.14832986
0101000020E61000005E50F8CF87CA52C0A7142AEEAEFF4340,0101000020110F00003E7E9C8F2BEB5FC1284EE2B08B8F5241,332372,2018.0,201839041931,0411,2018-06-17,00:05:00,B,M,42,legs,N,N,N,2800 BLOCK N Woodtock St,0,-75.16453933,39.997525949999996,39,0,1,0,39.99752595,-75.16453933
0101000020E61000003AE1A970D9CE52C027E13AAD78F74340,0101000020110F00006D1DB69481F25FC137CBF22272865241,332373,2018.0,201812044503,0411,2018-06-17,00:53:00,B,M,23,buttocks,N,N,N,6000 BLOCK Chester Ave,0,-75.23202149,39.93337026,12,0,1,0,39.93337026,-75.23202149
0101000020E61000002C44C9DC63C852C0A0EC988000044440,0101000020110F0000F19018D088E75FC173F19DAD55945241,332374,2018.0,201835050439,0411,2018-06-16,01:30:00,B,M,32,shoulder,N,N,N,400 BLOCK W Wellens St,0,-75.13109512,40.03126533,35,0,1,0,40.03126533,-75.13109512
0101000020E61000003DF6502E0FCB52C076D1C22B6A054440,0101000020110F00000574817F11EC5FC1748CC3DEE6955241,332375,2018.0,201814050123,0411,2018-06-15,09:39:00,B,M,41,leg,N,N,N,300 BLOCK E Haines St,0,-75.17280157,40.04230258,14,0,1,0,40.04230258,-75.17280157
0101000020E61000005DD669496CC552C0412E2FC82F024440,0101000020110F00003638DF987EE25FC150DBA74452925241,332376,2018.0,201815052431,0411,2018-06-15,00:48:00,B,M,24,multi,N,N,N,4700 BLOCK Griscom St,0,-75.0847343,40.01708319,15,0,1,0,40.01708319,-75.0847343
0101000020E610000055EE0DD7CDCA52C0EF95168173FF4340,0101000020110F0000B1759182A2EB5FC10D2B3ECF498F5241,332377,2018.0,201822046931,0411,2018-06-18,02:29:00,B,M,18,multi,N,N,N,2200 BLOCK W Lehigh Ave,0,-75.16881348,39.99571241,22,0,1,0,39.99571241,-75.16881348
0101000020E610000055EE0DD7CDCA52C0EF95168173FF4340,0101000020110F0000B1759182A2EB5FC10D2B3ECF498F5241,332378,2018.0,201822046934,0411,2018-06-18,02:29:00,B,M,24,arm,N,N,N,2200 BLOCK W Lehigh Ave,0,-75.16881348,39.99571241,22,0,1,0,39.99571241,-75.16881348
0101000020E6100000229AEDC820CF52C0C7CF6F2D4DF64340,0101000020110F0000C11167C4FAF25FC1620CBA6E26855241,332379,2018.0,201812045145,0411,2018-06-19,18:30:00,B,M,57,back,N,N,N,6600 BLOCK Woodland Ave,0,-75.23637603,39.92423027,12,0,1,0,39.92423027,-75.23637603
0101000020E6100000F06A9825AACE52C0D10A25F6FDFA4340,0101000020110F00002841A33F31F25FC1B2BB4E9A588A5241,332380,2018.0,201819050603,0411,2018-06-19,18:23:00,B,M,43,back,N,N,N,0 BLOCK N Yewdall St,0,-75.22913494,39.96087529,19,0,1,0,39.96087529,-75.22913494
,,332381,2018.0,201814051354,0411,2018-06-19,03:21:00,B,F,14,arm,N,N,N,Baynton St /  Chelten Ave,0,,,14,0,1,0,,
0101000020E610000079D1B24919C552C00774CBB3B7024440,0101000020110F0000FA727D9DF1E15FC16494C700E9925241,332382,2018.0,201815053800,0411,2018-06-19,04:24:00,B,M,19,temple,N,N,N,5000 BLOCK Frankford Ave,0,-75.07966846,40.02123115,15,0,1,0,40.02123115,-75.07966845
0101000020E610000045385E68CBC952C01F2F419908004440,0101000020110F00003BC76189EBE95FC12AD6621AEF8F5241,332383,2018.0,201825047756,0411,2018-06-20,18:12:00,B,M,38,multi,N,N,N,3100 BLOCK N Broad St,0,-75.15304002,40.00026241,25,0,1,0,40.00026241,-75.15304002
,,332640,2016.0,201603044601,0111,2016-08-08,02:44:00,W,M,28,head,N,N,N,2800 BLOCK S7TH St,0,,,03,1,0,1,,
0101000020E6100000496DFB815FCE52C01F255DD0CEF74340,0101000020110F000066106F77B2F15FC14984508BD1865241,332384,2018.0,201812045459,0411,2018-06-20,23:42:00,B,M,41,multi,N,N,N,1900 BLOCK S Ithan St,0,-75.22457934,39.93599896,12,0,1,0,39.93599896,-75.22457933
,,332385,2018.0,201817025980,0411,2018-06-21,01:52:00,B,M,20,head,N,N,N,27TH & DICKINSON STS,0,,,17,0,1,0,,
,,332386,2018.0,201822048796,0411,2018-06-24,21:39:00,B,F,18,head,N,N,N,18th & Jefferson St,0,,,22,0,1,0,,
,,332387,2018.0,201822048796,0411,2018-06-24,21:39:00,B,M,18,abdomen,N,N,N,18th & Jefferson St,0,,,22,0,1,0,,
,,332388,2018.0,201822048797,0411,2018-06-24,21:39:00,B,F,16,thigh,N,N,N,18th & Jefferson St,0,,,22,0,1,0,,
0101000020E61000000785181AD5CB52C033D328EAEDFC4340,0101000020110F000018ECD3AF61ED5FC141B620347E8C5241,332389,2018.0,201822048585,0411,2018-06-24,01:24:00,B,M,16,arm,N,N,N,1200 BLOCK N 30th St,0,-75.18488171,39.97601058,22,0,1,0,39.97601058,-75.18488171
0101000020E6100000C093162EEBCA52C02FE44B87D2034440,0101000020110F0000C19CD058D4EB5FC19AA459AF22945241,332390,2018.0,201839043570,0411,2018-06-23,15:23:00,B,M,34,multi,N,N,N,100 BLOCK W Queen Ln,0,-75.17060425,40.02986232,39,0,1,0,40.02986232,-75.17060425
0101000020E610000028A876C094C552C0DD7B55BAFD004440,0101000020110F0000CBCBC254C3E25FC14CDEB9E3FE905241,332391,2018.0,201815055125,0411,2018-06-22,19:48:00,B,M,24,chest,N,N,N,4200 BLOCK Tackawanna St,0,-75.08720409,40.00774316,15,0,1,0,40.00774316,-75.08720409
0101000020E6100000B2C5030412CC52C0B336D77A50FB4340,0101000020110F0000B119AB27C9ED5FC16C6FEB09B48A5241,332392,2018.0,201816027289,0411,2018-06-22,11:39:00,B,M,30,arm,N,N,N,500 BLOCK N 32nd St,0,-75.18859959,39.96339355,16,0,1,0,39.96339355,-75.18859959
0101000020E610000058CCE76026D052C0A702EE79FEFC4340,0101000020110F00006F41401CB7F45FC1551F0E8F908C5241,332393,2018.0,201819051287,0411,2018-06-22,07:20:00,B,M,32,arm,N,N,N,800 BLOCK N 66th St,0,-75.25234244,39.976516,19,0,1,0,39.976516,-75.25234244
,,332394,2018.0,201825048960,0411,2018-06-24,18:36:00,W,M,31,buttocks,N,N,N,500 BLOCK W Cambria Sr,1,,,25,0,1,0,,
0101000020E61000000812256B5EC552C0591775B52E024440,0101000020110F00002A29620A67E25FC1E898FE1351925241,332395,2018.0,201815055596,0411,2018-06-24,10:09:00,B,M,22,arms,N,N,N,4700 BLOCK Oxford Ave,0,-75.08388785,40.01705044,15,0,1,0,40.01705044,-75.08388785
,,332396,2018.0,201824053911,0411,2018-06-25,22:34:00,W,M,33,chest,N,N,N,C & Somerset St,0,,,24,0,1,0,,
0101000020E6100000903A323DFECE52C021FBC51190FA4340,0101000020110F0000ED1A6F16C0F25FC171850CD7DE895241,332397,2018.0,201818039706,0411,2018-06-25,16:37:00,B,M,25,multi,N,N,N,200 BLOCK S Ithan St,0,-75.23426752,39.95752165,18,0,1,0,39.95752165,-75.23426752
0101000020E61000007EAE9554D6C952C03CA7D567B9064440,0101000020110F00009A8C0917FEE95FC1936128CC5A975241,332398,2018.0,201835053559,0411,2018-06-25,23:22:00,B,M,20,multi,N,N,N,6400 BLOCK N Woodstock St,0,-75.15370669,40.05253313,35,0,1,0,40.05253313,-75.15370669
0101000020E6100000B838AE6FB5C452C071DF30F2AE014440,0101000020110F00007C8CD40148E15FC10BCEFC65C3915241,332399,2018.0,201815056130,0411,2018-06-25,23:30:00,W,M,28,head,N,N,N,2000 BLOCK Wakeling St,0,-75.07357399,40.01315143,15,0,1,0,40.01315143,-75.07357399
0101000020E610000033853196A7CB52C0FAF87C7BF4F74340,0101000020110F0000B530E65F14ED5FC12BD49044FB865241,332400,2018.0,201817026700,0411,2018-06-25,21:47:00,B,M,51,multi,N,N,N,2300 BLOCK Oakford St,0,-75.18210368,39.93714851,17,0,1,0,39.93714851,-75.18210368
0101000020E6100000092B5FE12EC952C0C1619AD041FF4340,0101000020110F00000430C3A8E1E85FC1B12D4DB9128F5241,332401,2018.0,201825049057,0411,2018-06-25,01:15:00,W,M,19,multi,N,N,N,2800 BLOCK N 7th St,1,-75.14348635,39.99419601,25,0,1,0,39.99419601,-75.14348635
0101000020E6100000CE83E432E8CE52C0A80F4D6ECEF54340,0101000020110F00009EE269A69AF25FC13A9200129A845241,332402,2018.0,201812046923,0411,2018-06-26,22:59:00,B,M,18,leg,N,N,N,6700 BLOCK Elmwood Ave,0,-75.23292229,39.92036227,12,0,1,0,39.92036227,-75.23292229
0101000020E6100000BA680A9526C852C034E5B7A6C8FF4340,0101000020110F00002EACE1B820E75FC1DCE4D734A88F5241,332403,2018.0,201825049629,0411,2018-06-27,00:24:00,W,M,20,multi,N,N,N,3200 BLOCK A Street,1,-75.12735487,39.99831089,25,0,1,0,39.99831089,-75.12735487
0101000020E6100000CD77112270CF52C0B9E4974551F94340,0101000020110F000039AE508C81F35FC1ABDCAFA37D885241,332404,2018.0,201818040043,0411,2018-06-27,05:23:00,B,M,40,arm,N,N,N,5800 BLOCK Washington Ave,0,-75.24121906,39.94779272,18,0,1,0,39.94779272,-75.24121906
0101000020E6100000AD467E166EC952C0EB8EC536A9054440,0101000020110F0000978F06064DE95FC1924528CF2C965241,332405,2018.0,201835054129,0411,2018-06-27,21:48:00,B,M,19,multi,N,N,N,1600 BLOCK Widener Pl,0,-75.14734423,40.0442265,35,0,1,0,40.0442265,-75.14734423
0101000020E61000003F84E1F167CF52C0EB4D90016EFA4340,0101000020110F000042E6BAA373F35FC1C1062F19B9895241,332406,2018.0,201818040248,0411,2018-06-27,22:27:00,B,M,24,abdomen,N,N,N,5900 BLOCK Spruce St,0,-75.24071929,39.95648212,18,0,1,0,39.95648212,-75.24071929
0101000020E61000008607075A85CE52C0918A7392B5F54340,0101000020110F000073C08DBFF2F15FC12D4BC38A7E845241,332407,2018.0,201812046995,0411,2018-06-27,10:04:00,B,M,17,arm,N,N,N,6400 BLOCK Guyer Ave,0,-75.22688915,39.91960364,12,0,1,0,39.91960364,-75.22688914
0101000020E61000008607075A85CE52C0918A7392B5F54340,0101000020110F000073C08DBFF2F15FC12D4BC38A7E845241,332408,2018.0,201812046996,0411,2018-06-27,10:04:00,W,M,18,multi,N,N,N,6400 BLOCK Guyer Ave,0,-75.22688915,39.91960364,12,0,1,0,39.91960364,-75.22688914
0101000020E61000006E6678DC85C752C02D6F586405004440,0101000020110F00002F40B0B80FE65FC15D5D418CEB8F5241,332409,2018.0,201825049925,0411,2018-06-28,01:07:00,W,F,35,stomach,N,N,N,600 BLOCK E Ontario St,1,-75.11754524,40.00016455,25,0,1,0,40.00016455,-75.11754524
,,332410,2018.0,201822050003,0411,2018-06-28,23:25:00,B,M,22,multi,N,N,N,24th & Oxford St,0,,,22,0,1,0,,
0101000020E6100000A0FF797569C952C000B79B9E7FFE4340,0101000020110F0000F2CE272945E95FC13A1D53733B8E5241,332411,2018.0,201826027317,0411,2018-06-28,16:52:00,B,M,29,leg,N,N,N,800 BLOCK W York St,0,-75.1470617,39.98826964,26,0,1,0,39.98826964,-75.1470617
0101000020E6100000376B32DBFCCC52C0C8F5A56DB2FB4340,0101000020110F00009128260E58EF5FC16B3EA593208B5241,332412,2018.0,201816028386,0411,2018-06-28,11:41:00,B,M,41,ankle,N,N,N,700 BLOCK N 40th St,0,-75.20293312,39.9663827,16,0,1,0,39.9663827,-75.20293312
0101000020E61000009D9BBA1B99CF52C0EC911F54D6FB4340,0101000020110F00003F360F26C7F35FC15A60095C488B5241,332413,2018.0,201819053898,0411,2018-07-01,02:35:00,B,F,28,arm,N,N,N,300 BLOCK N 62nd St,0,-75.24371999,39.96747829,19,0,1,0,39.96747829,-75.24371999
0101000020E61000009D9BBA1B99CF52C0EC911F54D6FB4340,0101000020110F00003F360F26C7F35FC15A60095C488B5241,332414,2018.0,201819053897,0411,2018-07-01,02:35:00,B,M,20,arm,N,N,N,300 BLOCK N 62nd St,0,-75.24371999,39.96747829,19,0,1,0,39.96747829,-75.24371999
0101000020E61000006CB32DDA8ECF52C0B223DDE8C6FB4340,0101000020110F0000A93E4CBAB5F35FC17722E045378B5241,332415,2018.0,201819053904,0411,2018-07-01,03:01:00,B,M,22,calf,N,N,N,300 BLOCK N Horton St,0,-75.24309401,39.96700774,19,0,1,0,39.96700774,-75.24309401
0101000020E6100000D4FB5B3C9BC852C03B429B5669FC4340,0101000020110F0000CBBDBBDEE6E75FC1C5ED4046EB8B5241,332416,2018.0,201826027648,0411,2018-06-30,16:37:00,W,M,41,hand,N,N,N,1400 BLOCK Frankford Ave,0,-75.13447484,39.97196467,26,0,1,0,39.97196467,-75.13447484
0101000020E610000057EA3802E1C452C0734319CBF0054440,0101000020110F0000AA22F10492E15FC126CF85387C965241,332417,2018.0,201802034799,0411,2018-07-01,00:55:00,W,M,20,arm,N,N,N,6800 BLOCK Frontenac St,1,-75.07623344,40.04641093,02,0,1,0,40.04641093,-75.07623344
0101000020E6100000CE6B704B79CB52C0475A85283AFF4340,0101000020110F0000365333BEC5EC5FC12067613C0A8F5241,332418,2018.0,201822050356,0411,2018-06-29,23:45:00,B,M,40,finger,N,N,N,2900 BLOCK W Cumberland St,0,-75.17927824,39.99396235,22,0,1,0,39.99396235,-75.17927824
0101000020E610000062365C3F18CB52C0B7C037B0C9FC4340,0101000020110F00005E4A08E620EC5FC12C11F60D568C5241,332419,2018.0,201822051032,0411,2018-07-02,01:55:00,B,M,26,multi,N,N,N,2200 BLOCK College Ave,0,-75.17335496,39.97490504,22,0,1,0,39.97490504,-75.17335495
0101000020E610000062365C3F18CB52C0B7C037B0C9FC4340,0101000020110F00005E4A08E620EC5FC12C11F60D568C5241,332420,2018.0,201822051033,0411,2018-07-02,01:55:00,B,M,28,back,N,N,N,2200 BLOCK College Ave,0,-75.17335496,39.97490504,22,0,1,0,39.97490504,-75.17335495
0101000020E6100000BE4D1CCC68CF52C0F79A58BF1DFB4340,0101000020110F000055426A1675F35FC15364C8D27B8A5241,332421,2018.0,201818041363,0411,2018-07-02,22:20:00,B,M,22,hip,N,N,N,0 BLOCK S 60th St,0,-75.24077132,39.96184532,18,0,1,0,39.96184532,-75.24077132
0101000020E610000063942DB344CC52C08264CFD8F6F74340,0101000020110F000055F6493F1FEE5FC19A330FE3FD865241,332422,2018.0,201817027705,0411,2018-07-02,21:16:00,B,M,30,elbow,N,N,N,2800 BLOCK Wharton St,0,-75.19169311,39.93722067,17,0,1,0,39.93722067,-75.19169311
0101000020E6100000F866827EB2CA52C07804DC98C3024440,0101000020110F00003621700F74EB5FC1688BD931F6925241,332423,2018.0,201839046241,0411,2018-07-03,15:22:00,B,M,27,multi,N,N,N,4600 BLOCK Fernhill Rd,0,-75.16714442,40.02159415,39,0,1,0,40.02159415,-75.16714442
0101000020E61000005C55F65D91C352C0EA7AA2EBC2054440,0101000020110F00002093F0E557DF5FC1FD1B055449965241,332424,2018.0,201802035372,0411,2018-07-03,20:30:00,B,M,22,abdomen,N,N,N,2600 BLOCK Cottman St,0,-75.0557475,40.045010999999995,02,0,1,0,40.045011,-75.0557475
0101000020E6100000315F3D7254CF52C0974C3E0BFCFC4340,0101000020110F0000B7DAEC8452F35FC1D35FEEDC8D8C5241,332425,2018.0,201819054958,0411,2018-07-04,23:27:00,B,M,17,head,N,N,N,1600 BLOCK N Redfield St,0,-75.23952919,39.97644177,19,0,1,0,39.97644177,-75.23952919
0101000020E61000002FEF9A25BBC552C0D3D19AB4E3024440,0101000020110F0000C0158C8C04E35FC13AA4E3CD19935241,332426,2018.0,201815059084,0411,2018-07-04,12:45:00,B,M,22,head,N,N,N,1100 BLOCK Fillmore St,0,-75.08954754,40.02257402,15,0,1,0,40.02257402,-75.08954754
0101000020E6100000648F924F76C852C0F8D3B1103EFF4340,0101000020110F00006E473926A8E75FC14EAA28910E8F5241,332427,2018.0,201825051844,0411,2018-07-04,22:01:00,W,M,29,head/multi,N,N,N,2800 BLOCK N Mascher St,1,-75.13222112,39.99408158,25,0,1,0,39.99408158,-75.13222112
0101000020E6100000648F924F76C852C0F8D3B1103EFF4340,0101000020110F00006E473926A8E75FC14EAA28910E8F5241,332428,2018.0,201825051840,0411,2018-07-04,22:01:00,W,F,29,leg,N,N,N,2800 BLOCK N Mascher St,1,-75.13222112,39.99408158,25,0,1,0,39.99408158,-75.13222112
0101000020E6100000B34D43B78BC852C05590B82AFDFB4340,0101000020110F0000E5800782CCE75FC162CE1266738B5241,332429,2018.0,201826028298,0411,2018-07-04,21:30:00,W,M,43,foot,N,N,N,1100 BLOCK Shackamaxon St,0,-75.13352758,39.96866354,26,0,1,0,39.96866354,-75.13352758
0101000020E610000088951B56C2C652C075D4C900EDFF4340,0101000020110F0000BE17519AC3E45FC11FE52682D08F5241,332430,2018.0,201824056850,0411,2018-07-04,19:27:00,B,M,26,chest,N,N,N,1800 BLOCK E Tioga St,0,-75.10561135,39.99942026,24,0,1,0,39.99942026,-75.10561135
0101000020E610000088951B56C2C652C075D4C900EDFF4340,0101000020110F0000BE17519AC3E45FC11FE52682D08F5241,332431,2018.0,201824056867,0411,2018-07-04,19:27:00,B,M,26,chest,N,N,N,1800 BLOCK E Tioga St,0,-75.10561135,39.99942026,24,0,1,0,39.99942026,-75.10561135
0101000020E61000006295DAA4C5CA52C0BEB78E160CFE4340,0101000020110F0000FD39909694EB5FC177BE5763BB8D5241,332432,2018.0,201822051814,0411,2018-07-05,01:51:00,B,M,16,abdomen,N,N,N,2000 BLOCK N 21st St,0,-75.16831323,39.9847439,22,0,1,0,39.9847439,-75.16831323
0101000020E61000005F4EBFFA6EC952C01CDAD7EC8E054440,0101000020110F000046F1BC894EE95FC14DCB01A50F965241,332433,2018.0,201835056380,0411,2018-07-05,11:00:00,B,M,26,arm,N,N,N,1600 BLOCK W Nedro Ave,0,-75.14739865,40.04342423,35,0,1,0,40.04342423,-75.14739865
0101000020E61000005F4EBFFA6EC952C01CDAD7EC8E054440,0101000020110F000046F1BC894EE95FC14DCB01A50F965241,332434,2018.0,201835056381,0411,2018-07-05,11:00:00,B,M,30,arm,N,N,N,1600 BLOCK W Nedro Ave,0,-75.14739865,40.04342423,35,0,1,0,40.04342423,-75.14739865
0101000020E610000028A876C094C552C0DD7B55BAFD004440,0101000020110F0000CBCBC254C3E25FC14CDEB9E3FE905241,332435,2018.0,201815059603,0411,2018-07-05,21:55:00,B,M,25,multi,N,N,N,4200 BLOCK Tackawanna St,0,-75.08720409,40.00774316,15,0,1,0,40.00774316,-75.08720409
0101000020E61000000818E11681C452C094AB92A7B0014440,0101000020110F0000C6853817EFE05FC1B7C2FF4AC5915241,332436,2018.0,201815060650,0411,2018-07-08,17:00:00,B,M,15,arm,N,N,N,5200 BLOCK Torresdale Ave,0,-75.07037899,40.01320358,15,0,1,0,40.01320357,-75.07037899
0101000020E61000000818E11681C452C094AB92A7B0014440,0101000020110F0000C6853817EFE05FC1B7C2FF4AC5915241,332437,2018.0,201815060623,0411,2018-07-08,17:00:00,B,M,13,head/multi,N,N,N,5200 BLOCK Torresdale Ave,0,-75.07037899,40.01320358,15,0,1,0,40.01320357,-75.07037899
0101000020E61000008D8A8BE50EC952C0C6E33F3009014440,0101000020110F0000AF38EA54ABE85FC1049CE2980B915241,332438,2018.0,201825052712,0411,2018-07-07,21:30:00,B,M,30,ankle,N,N,N,700 BLOCK W Erie Ave,0,-75.14153422,40.00809291,25,0,1,0,40.00809291,-75.14153422
0101000020E61000001722F13C02CB52C012FA997ADDF74340,0101000020110F0000B3EC6783FBEB5FC1971CB1C9E1865241,332439,2018.0,201817028405,0411,2018-07-06,21:57:00,B,M,50,ankle,N,N,N,1200 BLOCK S 17th St,0,-75.1720116,39.9364465,17,0,1,0,39.9364465,-75.1720116
0101000020E61000008C864A2B57CD52C00E5C50A507FC4340,0101000020110F0000569EF475F1EF5FC1427EDC027F8B5241,332440,2018.0,201816030125,0411,2018-07-08,19:05:00,B,M,48,abdomen,N,N,N,4200 BLOCK Ogden St,0,-75.20844538,39.96898333,16,0,1,0,39.96898333,-75.20844538
0101000020E61000005BB694FBF6C952C0DD0F1536C5084440,0101000020110F0000A92EA28D35EA5FC195A1200CA0995241,332441,2018.0,201814057704,0411,2018-07-09,23:17:00,B,M,36,arm,N,N,N,7400 BLOCK Sommers Rd,0,-75.15569963,40.06851841,14,0,1,0,40.06851841,-75.15569963
0101000020E610000007A08B657EC252C0FA417EB2B9044440,0101000020110F0000F81556D584DD5FC17E536B1A23955241,332231,2018.0,201815075502,0411,2018-08-20,18:49:00,B,M,43,head,N,N,N,4000 BLOCK ALDINE ST,0,-75.03896464,40.03691703,15,0,1,0,40.03691703,-75.03896464
0101000020E6100000DED8FD740DCF52C0115F1E19C8FC4340,0101000020110F000056A1D5EFD9F25FC17A86C84A548C5241,332232,2018.0,201819068616,0411,2018-08-20,22:30:00,B,M,29,neck,N,N,N,5700 BLOCK MEDIA ST,0,-75.23519635,39.97485651,19,0,1,0,39.97485651,-75.23519635
0101000020E610000082778FBF36CF52C000A66F460BF64340,0101000020110F00008B64021320F35FC192FA2073DD845241,332233,2018.0,201812060994,0411,2018-08-20,18:30:00,B,M,24,foot,N,N,N,2200 BLOCK S 68TH ST,0,-75.23771657,39.92221909,12,0,1,0,39.92221909,-75.23771657
0101000020E610000081D09B069CCA52C0C9DF41DC6AF84340,0101000020110F0000787C41E54DEB5FC1DC87F3647E875241,332234,2018.0,201803024309,0411,2018-05-03,21:04:00,B,F,26,head,N,N,N,1300 BLOCK Catherine St,0,-75.16577306,39.94076112,03,0,1,0,39.94076112,-75.16577306
0101000020E610000032635D1EE3CF52C0F190B5C8EEF94340,0101000020110F000031B6D3DC44F45FC1B78CAA242C895241,332235,2018.0,201818026583,0411,2018-05-03,00:57:00,B,M,31,multi,N,N,N,6200 BLOCK Walton St,0,-75.24823722,39.95259961,18,0,1,0,39.95259961,-75.24823722
0101000020E61000006C4AAA9DFEC852C00E089DA59E014440,0101000020110F000038FE59AD8FE85FC1A74F0C53B1915241,332236,2018.0,201825033306,0411,2018-05-03,00:18:00,B,M,31,multi/head,N,N,N,700 BLOCK W Luzerne St,0,-75.14054052,40.01265402,25,0,1,0,40.01265402,-75.14054052
0101000020E61000006C4AAA9DFEC852C00E089DA59E014440,0101000020110F000038FE59AD8FE85FC1A74F0C53B1915241,332237,2018.0,201825033307,0411,2018-05-03,00:18:00,B,M,20,head,N,N,N,700 BLOCK W Luzerne St,0,-75.14054052,40.01265402,25,0,1,0,40.01265402,-75.14054052
0101000020E6100000FA0560A868CB52C07C33413F99054440,0101000020110F00007D69C07BA9EC5FC106A379181B965241,332238,2018.0,201814037041,0411,2018-05-03,20:51:00,B,M,38,abdom,N,N,N,100 BLOCK E Tulpehocken St,0,-75.1782628,40.04373923,14,0,1,0,40.04373923,-75.1782628
0101000020E6100000E57039A05DC952C05C14877D4C054440,0101000020110F00000475AA0F31E95FC1848C90F1C5955241,332239,2018.0,201835037298,0411,2018-05-05,19:53:00,B,M,21,back,N,N,N,1500 BLOCK W Grange Ave,0,-75.14633947,40.0413968,35,0,1,0,40.0413968,-75.14633947
0101000020E6100000E57039A05DC952C05C14877D4C054440,0101000020110F00000475AA0F31E95FC1848C90F1C5955241,332240,2018.0,201835037299,0411,2018-05-05,19:53:00,B,M,20,leg,N,N,N,1500 BLOCK W Grange Ave,0,-75.14633947,40.0413968,35,0,1,0,40.0413968,-75.14633947
0101000020E61000006274CCBB22CB52C039CE54259DFD4340,0101000020110F00003E3BD2B532EC5FC17525346B408D5241,332241,2018.0,201822034204,0411,2018-05-05,02:56:00,B,M,36,hip,N,N,N,1700 BLOCK N 24th St,0,-75.17399497,39.98135821,22,0,1,0,39.98135821,-75.17399497
0101000020E61000004F30AD9730CF52C07DBC4681F4F54340,0101000020110F00005E43369E15F35FC12ED1D13BC4845241,332242,2018.0,201812032812,0411,2018-05-04,00:53:00,B,M,33,leg,N,N,N,6800 BLOCK Paschal Ave,0,-75.23734085,39.9215242,12,0,1,0,39.9215242,-75.23734085
0101000020E6100000B0A4A2D2C4C452C0DD98BFBEAD024440,0101000020110F000004948A2462E15FC1FAA6D2F5DD925241,332243,2018.0,201815038130,0411,2018-05-04,21:03:00,W,M,28,torso,N,N,N,1700 BLOCK Bridge St,0,-75.07451311,40.02092728,15,0,1,0,40.02092728,-75.07451311
0101000020E6100000E9DA72897EC752C0367BB9B2B8FF4340,0101000020110F0000C187C64703E65FC1E2211E85968F5241,332244,2018.0,201825034445,0411,2018-05-06,18:41:00,B,F,20,thigh,N,N,N,700 BLOCK E Madison St,0,-75.1170982,39.99782404,25,0,1,0,39.99782404,-75.1170982
0101000020E61000006347C24296C752C03B7E5EA747064440,0101000020110F00001874E7932BE65FC19BCFBF96DC965241,332245,2018.0,201835037667,0411,2018-05-06,22:35:00,B,M,35,multi/head,N,N,N,100 BLOCK W 65th Ave,0,-75.11854619,40.0490617,35,0,1,0,40.0490617,-75.11854619
0101000020E6100000656AF91E01CB52C0A5021F6A78FD4340,0101000020110F0000E33FA99DF9EB5FC1C1DCF4B4178D5241,332246,2018.0,201822033413,0411,2018-05-02,20:12:00,B,M,31,multi,N,N,N,2200 BLOCK Ridge Ave,0,-75.17194342,39.98023726,22,0,1,0,39.98023726,-75.17194342
0101000020E6100000D6D54FC5AECB52C0CDA9A61C7AFF4340,0101000020110F000080AED39320ED5FC111D48822518F5241,332247,2018.0,201822034969,0411,2018-05-07,17:02:00,B,M,38,thigh,N,N,N,3100 BLOCK W Huntingdon St,0,-75.18254217,39.99591406,22,0,1,0,39.99591406,-75.18254216
0101000020E61000001BD77DCFA1CA52C02B1D28C74F004440,0101000020110F00004C38AFB857EB5FC1404918053E905241,332248,2018.0,201839031159,0411,2018-05-07,21:38:00,B,M,27,unk,N,N,N,2200 BLOCK W Lippencott St,0,-75.16612613,40.00243463,39,0,1,0,40.00243463,-75.16612613
0101000020E6100000400513C1B0C452C083848B890B044440,0101000020110F00009E7EE00D40E15FC1F3E207EB61945241,332249,2018.0,201815039277,0411,2018-05-08,01:49:00,B,M,33,shoulder,N,N,N,6100 BLOCK  Bustleton Ave,0,-75.07328822,40.03160209,15,0,1,0,40.03160209,-75.07328822
0101000020E6100000ACD1E5AC53C752C0F876640F61FF4340,0101000020110F0000642ACB79BAE55FC1D4E6BA5C358F5241,332250,2018.0,201824037601,0411,2018-05-08,14:00:00,B,M,19,leg,N,N,N,1800 BLOCK E CLEMENTINE ST,0,-75.11448214,39.99514954,24,0,1,0,39.99514954,-75.11448214
0101000020E6100000F1C39CFB06CE52C00BCFF00BD4F74340,0101000020110F000045491E191CF15FC1939C1757D7865241,332251,2018.0,201812034234,0411,2018-05-09,00:29:00,B,M,44,multi,N,N,N,5400 BLOCK Woodland Ave,0,-75.2191762,39.93615865,12,0,1,0,39.93615865,-75.2191762
,,332252,2018.0,201814038814,0411,2018-05-09,15:37:00,B,M,21,buttock,N,N,N,Chew Ave & Johnson St,0,,,14,0,1,0,,
0101000020E6100000D5CDE6ED5FCD52C0DF0DF5FDCCFB4340,0101000020110F0000174D415700F05FC19DFE5D033E8B5241,332253,2018.0,201816019310,0411,2018-05-09,23:14:00,B,M,28,head,N,N,N,4200 BLOCK Lancaster Ave,0,-75.20898006,39.96719336,16,0,1,0,39.96719336,-75.20898006
0101000020E6100000CC845779DFCB52C0BF87010121F84340,0101000020110F0000CBCE074E73ED5FC16F734F952C875241,332254,2018.0,201817019667,0411,2018-05-09,22:57:00,B,M,29,shoulder,N,N,N,2500 BLOCK Federal St,0,-75.18551477,39.9385072,17,0,1,0,39.9385072,-75.18551477
0101000020E61000002844E12F3DCA52C0AFBC1E2BFCF54340,0101000020110F0000085864CDACEA5FC15C1364B8CC845241,332255,2018.0,201803025857,0411,2018-05-09,22:01:00,B,M,61,groin,N,N,N,2200 BLOCK S 8th St,0,-75.15998456,39.92175807,03,0,1,0,39.92175807,-75.15998456
0101000020E6100000677008134EC752C074B7A98957FF4340,0101000020110F0000D4E23AF6B0E55FC1624D42CE2A8F5241,332256,2018.0,201824038163,0411,2018-05-10,09:40:00,B,M,28,multi,N,N,N,1800 BLOCK E Clementine St,0,-75.11414028,39.99485894,24,0,1,0,39.99485894,-75.11414028
0101000020E6100000889FDE1093CB52C0C284F2BA55FD4340,0101000020110F00006F9C9984F1EC5FC1D169B143F18C5241,332257,2018.0,201822035879,0411,2018-05-10,19:07:00,B,M,37,multi,N,N,N,1500 BLOCK N 28th St,0,-75.18085119,39.97917878,22,0,1,0,39.97917878,-75.18085119
0101000020E610000005680014C8C952C08FB35D5F73F64340,0101000020110F0000103F8DE1E5E95FC14B426FBB50855241,332258,2018.0,201803026058,0411,2018-05-10,19:54:00,B,M,25,back,N,N,N,1800 BLOCK S 4th St,0,-75.1528368,39.92539589,03,0,1,0,39.92539589,-75.1528368
0101000020E6100000B2AF44B9D7C952C0A1031E5ADC054440,0101000020110F0000AC7AE67400EA5FC19979E28A65965241,332259,2018.0,201835038969,0411,2018-05-10,23:26:00,B,M,30,knee,N,N,N,2000 BLOCK W Champlost Ave,0,-75.15379173,40.04578711,35,0,1,0,40.04578711,-75.15379173
0101000020E610000050A6551D87C752C0D6F2F37468FF4340,0101000020110F0000C86DB5D911E65FC19C42F18F3D8F5241,332260,2018.0,201824038404,0411,2018-05-11,00:45:00,W,M,28,multi,N,N,N,700 BLOCK E Clearfield St,1,-75.11762174,39.99537527,24,0,1,0,39.99537527,-75.11762174
0101000020E6100000716FE1EDBFCE52C08F803C81D1F94340,0101000020110F0000EAF0843F56F25FC1F45961B40B895241,332261,2018.0,201818029061,0411,2018-05-12,08:49:00,B,F,30,arm,N,N,N,500 BLOCK S 54th St,0,-75.23046443,39.95170608,18,0,1,0,39.95170608,-75.23046443
0101000020E61000008ECD0A1C3BC452C0DB4178F68D064440,0101000020110F00000E39113978E05FC13686B6982A975241,332262,2018.0,201802024418,0411,2018-05-11,23:53:00,B,M,24,multi,N,N,N,1900 BLOCK Cottman Ave,0,-75.06610776,40.05120736,02,0,1,0,40.05120736,-75.06610776
,,332709,2016.0,201624033822,0111,2016-04-10,02:20:00,W,M,26,chest,N,N,N,200 BLOCK EAllegheny Ave,1,,,24,1,0,1,,
0101000020E61000008ECD0A1C3BC452C0DB4178F68D064440,0101000020110F00000E39113978E05FC13686B6982A975241,332263,2018.0,201802024419,0411,2018-05-11,23:53:00,B,M,16,thigh,N,N,N,1900 BLOCK Cottman Ave,0,-75.06610776,40.05120736,02,0,1,0,40.05120736,-75.06610776
0101000020E6100000046FEDE9CFCA52C0806D37A0A9FE4340,0101000020110F00001B3C4F08A6EB5FC135CDBA036A8E5241,332264,2018.0,201822036278,0411,2018-05-11,22:46:00,B,M,44,head,N,N,N,2200 BLOCK W Dauphin St,0,-75.16894005,39.98955157,22,0,1,0,39.98955157,-75.16894005
0101000020E6100000B82B8926AFC852C0260F5542C1054440,0101000020110F000015CB7FB208E85FC1A3F72E7C47965241,332265,2018.0,201835039262,0411,2018-05-11,19:56:00,B,M,30,foot,N,N,N,900 BLOCK W Spencer St,0,-75.13569034,40.0449603,35,0,1,0,40.0449603,-75.13569034
0101000020E610000070875D46F7C952C098D08F4CA8F64340,0101000020110F00007994A90C36EA5FC1A985FD588B855241,332266,2018.0,201803026294,0411,2018-05-11,22:15:00,B,M,24,back,N,N,N,1700 BLOCK S 6th St,0,-75.15571746,39.92701108,03,0,1,0,39.92701108,-75.15571746
0101000020E610000032FB029B2FCE52C0DD8452E6ACF84340,0101000020110F0000BE618B1961F15FC18B3B748CC7875241,332267,2018.0,201812034905,0411,2018-05-11,20:07:00,B,M,22,buttocks,N,N,N,1100 BLOCK S 52nd St,0,-75.22165561,39.94277648,12,0,1,0,39.94277648,-75.22165561
0101000020E610000012E22593EECD52C0BE0313EA2FF84340,0101000020110F0000CD0779A3F2F05FC1C0EC6F193D875241,332268,2018.0,201812035049,0411,2018-05-12,03:24:00,B,M,27,leg,N,N,N,1500 BLOCK S Wilton St,0,-75.21768645,39.93896223,12,1,0,0,39.93896223,-75.21768645
0101000020E610000002A027F1FBCC52C0B2E17EFAAEFB4340,0101000020110F000023DA9A8056EF5FC10DE1FDC01C8B5241,332269,2018.0,201816019800,0411,2018-05-12,01:22:00,B,M,27,multi,N,N,N,4000 BLOCK Aspen St,0,-75.20287732,39.96627742,16,0,1,0,39.96627742,-75.20287732
0101000020E610000016434142B7C652C063A430529CFF4340,0101000020110F0000CDDB55C9B0E45FC13C5C5C0F778F5241,332270,2018.0,201824039632,0411,2018-05-14,23:45:00,W,M,26,torso,N,N,N,2000 BLOCK E Schiller St,1,-75.10493523,39.99695804,24,0,1,0,39.99695804,-75.10493523
0101000020E6100000F702B34291C952C058A72D2248FB4340,0101000020110F00004B5A93C488E95FC139E24FCAAA8A5241,332271,2018.0,201806020622,0411,2018-05-14,22:42:00,B,M,54,neck,N,N,N,600 BLOCK N 7th St,0,-75.149491,39.96313884,06,0,1,0,39.96313884,-75.149491
0101000020E6100000B3C2A1759CC852C059CE1054AEFE4340,0101000020110F00004CBCDBF2E8E75FC1C5B9363A6F8E5241,332272,2018.0,201826019938,0411,2018-05-15,13:30:00,W,M,51,head,N,N,N,100 BLOCK W Huntingdon St,1,-75.13454953,39.98969508,26,0,1,0,39.98969508,-75.13454953
0101000020E6100000B3C2A1759CC852C059CE1054AEFE4340,0101000020110F00004CBCDBF2E8E75FC1C5B9363A6F8E5241,332273,2018.0,201826019943,0411,2018-05-15,13:30:00,W,F,53,head,N,N,N,100 BLOCK W Huntingdon St,1,-75.13454953,39.98969508,26,0,1,0,39.98969508,-75.13454953
0101000020E6100000B8CFE81613C452C04C4B30C5EA014440,0101000020110F0000F0A4AD3E34E05FC1BB00F6BC05925241,332274,2018.0,201815041673,0411,2018-05-15,16:10:00,B,M,29,back,N,N,N,2100 BLOCK Anchor St,0,-75.06366513,40.01497712,15,0,1,0,40.01497712,-75.06366513
0101000020E6100000EF02C2DA1ACA52C081BA799126014440,0101000020110F000090042F7C72EA5FC1BE1B952C2C915241,332275,2018.0,201839033196,0411,2018-05-15,18:18:00,B,F,30,legs,N,N,N,3600 BLOCK N 18th St,0,-75.15788907,40.00898951,39,0,1,0,40.00898951,-75.15788907
0101000020E610000008DA0D707BCC52C02F0410A9AFFB4340,0101000020110F00002FAA91397CEE5FC196836F821D8B5241,332276,2018.0,201816020545,0411,2018-05-16,01:54:00,B,M,54,multi,N,N,N,700 BLOCK N 36th St,0,-75.19503404,39.96629823,16,0,1,0,39.96629823,-75.19503404
0101000020E61000000DB1B096B1CD52C00558FD7430FC4340,0101000020110F0000C965240C8BF05FC1602FDE3CAC8B5241,332277,2018.0,201816020742,0411,2018-05-17,02:15:00,B,M,34,leg,N,N,N,4600 BLOCK Lancaster Ave,0,-75.21396416,39.97022879,16,0,1,0,39.97022879,-75.21396415
0101000020E610000085A50DC901CC52C0DFACDA98CBF74340,0101000020110F0000375B0C96ADED5FC1E09728FBCD865241,332278,2018.0,201817020726,0411,2018-05-17,20:00:00,B,M,32,back,N,N,N,2600 BLOCK Earp St,0,-75.18760897,39.93590079,17,0,1,0,39.93590079,-75.18760897
0101000020E610000078E737E989C952C06B9867463B004440,0101000020110F0000DEE3B0487CE95FC1217CB64927905241,332279,2018.0,201825037514,0411,2018-05-17,11:10:00,B,M,19,thigh,N,N,N,1200 BLOCK W Hilton St,0,-75.14904242,40.00180893,25,0,1,0,40.00180893,-75.14904242
0101000020E6100000D940FCF406CF52C0B47977BF65F84340,0101000020110F0000993B5AE5CEF25FC1181F2DBB78875241,332280,2018.0,201812037357,0411,2018-05-20,22:26:00,B,F,23,multi,N,N,N,5800 BLOCK Hadfield St,0,-75.23479962,39.9406051,12,0,1,0,39.9406051,-75.23479962
0101000020E6100000D940FCF406CF52C0B47977BF65F84340,0101000020110F0000993B5AE5CEF25FC1181F2DBB78875241,332281,2018.0,201812037360,0411,2018-05-20,22:26:00,B,M,74,multi,N,N,N,5800 BLOCK Hadfield St,0,-75.23479962,39.9406051,12,0,1,0,39.9406051,-75.23479962
0101000020E61000009FD51B182DCB52C04EEE9836F3FE4340,0101000020110F0000806A094F44EC5FC172CBAA96BB8E5241,332282,2018.0,201822038764,0411,2018-05-20,21:36:00,B,M,34,hand,N,N,N,2500 BLOCK W York St,0,-75.17462733,39.99179728,22,0,1,0,39.99179728,-75.17462733
0101000020E6100000AFFA12E0EAC852C020F1C8ABB5014440,0101000020110F0000B28E51256EE85FC129520FDBCA915241,331944,2018.0,201825060638,0411,2018-08-04,22:09:00,W,M,24,stomach,N,N,N,4000 BLOCK N 7TH ST,1,-75.13933565,40.01335666,25,0,1,0,40.01335666,-75.13933565
0101000020E610000006C96DC173CB52C0F6DD218364014440,0101000020110F0000153B9155BCEC5FC195B140DC70915241,331945,2018.0,201839054483,0411,2018-08-04,23:35:00,B,M,25,arm,N,N,N,3200 BLOCK DEFENSE TERRACE,0,-75.17894016,40.01087989,39,0,1,0,40.01087989,-75.17894016
0101000020E610000031D4407772CA52C030764EF55CFE4340,0101000020110F000096713D4D07EB5FC1D1C16907158E5241,331946,2018.0,201822061414,0411,2018-08-05,22:45:00,B,M,21,buttocks,N,N,N,1800 BLOCK W SUSQUEHANNA AV,0,-75.16323644,39.98721186,22,0,1,0,39.98721186,-75.16323644
0101000020E610000031D4407772CA52C030764EF55CFE4340,0101000020110F000096713D4D07EB5FC1D1C16907158E5241,331947,2018.0,201822061418,0411,2018-08-05,22:45:00,B,M,21,leg,N,N,N,1800 BLOCK W SUSQUEHANNA AV,0,-75.16323644,39.98721186,22,0,1,0,39.98721186,-75.16323644
0101000020E6100000AF42461786C852C0A518BDA649004440,0101000020110F0000F76310F4C2E75FC15D38283A37905241,331948,2018.0,201825060952,0411,2018-08-05,22:54:00,B,M,19,foot,N,N,N,3400 BLOCK PHILIP ST,0,-75.13318426,40.00224766,25,0,1,0,40.00224766,-75.13318426
0101000020E6100000AF42461786C852C0A518BDA649004440,0101000020110F0000F76310F4C2E75FC15D38283A37905241,331949,2018.0,201825060953,0411,2018-08-05,22:54:00,B,M,19,leg,N,N,N,3400 BLOCK PHILIP ST,1,-75.13318426,40.00224766,25,0,1,0,40.00224766,-75.13318426
0101000020E6100000AF42461786C852C0A518BDA649004440,0101000020110F0000F76310F4C2E75FC15D38283A37905241,331950,2018.0,201825060954,0411,2018-08-05,22:54:00,B,M,19,leg,N,N,N,3400 BLOCK PHILIP ST,1,-75.13318426,40.00224766,25,0,1,0,40.00224766,-75.13318426
0101000020E61000001C1DFC6948C752C04349D44D5AFF4340,0101000020110F0000163DE058A7E55FC1180955DF2D8F5241,331951,2018.0,201824067533,0411,2018-08-04,20:55:00,B,M,28,head,N,N,N,1800 BLOCK E LIPPENCOTT ST,0,-75.1137948,39.99494336,24,0,1,0,39.99494336,-75.1137948
0101000020E610000075CC9AD4A7C952C0080C27A329004440,0101000020110F00004FEBED1AAFE95FC1AD119EBB13905241,331952,2018.0,201825061092,0411,2018-08-06,14:43:00,B,F,52,finger,N,N,N,1300 BLOCK W Allegheny Ave,0,-75.15086856,40.00127067,25,0,1,0,40.00127067,-75.15086856
0101000020E61000007536AAF48FC952C0BD25EFD23C004440,0101000020110F000041422F8D86E95FC1919E590129905241,332161,2018.0,201825061000,0411,2018-08-06,01:29:00,B,M,32,abdom,N,N,N,1200 BLOCK W Hilton St,0,-75.14941136,40.0018562,25,0,1,0,40.0018562,-75.14941136
0101000020E61000001F68A25B71CE52C0AFDDEAF7CCF84340,0101000020110F0000A2B372C9D0F15FC15A45BD12EB875241,332162,2018.0,201812055214,0411,2018-07-29,08:58:00,B,M,30,arm,N,N,N,5300 BLOCK Florence Ave,0,-75.22566881,39.94375514,12,0,1,0,39.94375514,-75.22566882
0101000020E61000003FB9F98850CD52C0A3D00DA812FC4340,0101000020110F0000E80E3231E6EF5FC1560A8A368B8B5241,332163,2018.0,201816035016,0411,2018-08-07,21:17:00,B,M,25,multi/head,N,N,N,800 BLOCK N 42ND ST,0,-75.20804047,39.96931935,16,0,1,0,39.96931935,-75.20804047
0101000020E6100000CA673F7352CF52C0E2D3944B80FD4340,0101000020110F0000352BF4204FF35FC19B700971208D5241,332164,2018.0,201819064876,0411,2018-08-07,21:50:00,B,M,17,back,N,N,N,1900 BLOCK N 59TH ST,0,-75.23940736,39.98047776,19,0,1,0,39.98047776,-75.23940736
0101000020E6100000CA673F7352CF52C0E2D3944B80FD4340,0101000020110F0000352BF4204FF35FC19B700971208D5241,332165,2018.0,201819064884,0411,2018-08-07,21:50:00,B,M,15,buttocks,N,N,N,1900 BLOCK N 59TH ST,0,-75.23940736,39.98047776,19,0,1,0,39.98047776,-75.23940736
0101000020E6100000F6A58EC0A5C952C037EB00461F014440,0101000020110F0000B6763193ABE95FC1EB10E11524915241,332166,2018.0,201825061442,0411,2018-08-07,15:51:00,B,M,22,multi,N,N,N,3600 BLOCK GERMANTOWN AVE,0,-75.15074171,40.00876689,25,0,1,0,40.00876689,-75.15074171
0101000020E6100000F6A58EC0A5C952C037EB00461F014440,0101000020110F0000B6763193ABE95FC1EB10E11524915241,332167,2018.0,201825061445,0411,2018-08-07,15:51:00,B,F,68,leg,N,N,N,3600 BLOCK GERMANTOWN AVE,0,-75.15074171,40.00876689,25,0,1,0,40.00876689,-75.15074171
0101000020E6100000ED69E27899CF52C0DF87C5A0FAFB4340,0101000020110F0000281C4BC4C7F35FC1980ED195708B5241,332168,2018.0,201819065085,0411,2018-08-08,18:54:00,B,M,25,foot,N,N,N,6200 BLOCK Callowhill St,0,-75.2437422,39.96858606,19,0,1,0,39.96858606,-75.2437422
0101000020E610000064BDA473F6CE52C0E5803C3FB5F54340,0101000020110F000077242FDCB2F25FC15EBC9C2E7E845241,332169,2018.0,201812058011,0411,2018-08-08,21:48:00,B,M,21,head,N,N,N,2500 BLOCK Hobson St,0,-75.23379222,39.91959372,12,0,1,0,39.91959372,-75.23379222
0101000020E610000094DC822182C752C0F4F0D03D8CFF4340,0101000020110F00009623986209E65FC1A0D8D33B658F5241,332170,2018.0,201824068848,0411,2018-08-08,17:05:00,B,M,23,leg,N,N,N,3100 BLOCK F Street,0,-75.11731755,39.99646733,24,0,1,0,39.99646733,-75.11731756
,,332171,2018.0,201825061649,0411,2018-08-08,10:03:00,B,M,28,back,N,N,N,D & Rockland Sts,0,,,25,0,1,0,,
0101000020E61000007783AAC9FACB52C002BDECAE1EFB4340,0101000020110F0000056032B3A1ED5FC1335440DC7C8A5241,332172,2018.0,201816035071,0411,2018-08-08,02:38:00,B,M,16,finger,N,N,N,3100 BLOCK Baring St,0,-75.18718187,39.96187388,16,0,1,0,39.96187388,-75.18718187
0101000020E610000001ADAF643DC852C0415D6AA58CFF4340,0101000020110F0000CB6F1B7847E75FC1802CAEAE658F5241,332173,2018.0,201824069410,0411,2018-08-10,02:11:00,W,M,23,legs,N,N,N,3000 BLOCK N Water St,1,-75.12874715,39.99647968,24,0,1,0,39.99647968,-75.12874715
0101000020E61000004AF002FCC5C652C0BAC6C26BF2FF4340,0101000020110F0000436FA5CCC9E45FC18E6FDA83D68F5241,332174,2018.0,201824070009,0411,2018-08-11,18:11:00,B,M,26,back,N,N,N,1800 BLOCK E TIOGA ST,0,-75.10583401,39.9995856,24,0,1,0,39.9995856,-75.10583401
0101000020E61000004B0B6ED6A6C952C05D403FBE4AFE4340,0101000020110F00007F17306BADE95FC14F568CD6008E5241,332175,2018.0,201822063141,0411,2018-08-11,20:50:00,B,M,32,legs,N,N,N,1100 BLOCK W NEVADA ST,0,-75.15080796,39.98665598,22,0,1,0,39.98665598,-75.15080796
0101000020E61000004B0B6ED6A6C952C05D403FBE4AFE4340,0101000020110F00007F17306BADE95FC14F568CD6008E5241,332176,2018.0,201822063140,0411,2018-08-11,20:50:00,B,F,32,arm,N,N,N,1100 BLOCK W NEVADA ST,0,-75.15080796,39.98665598,22,0,1,0,39.98665598,-75.15080796
0101000020E61000009BDC39DEEEC952C060D706595C024440,0101000020110F0000A68609C527EA5FC1AA39BCB083925241,332177,2018.0,201839056234,0411,2018-08-11,20:54:00,B,M,16,abdomen,N,N,N,4200 BLOCK GERMANTOWN AV,0,-75.15520435,40.01844323,39,0,1,0,40.01844323,-75.15520435
0101000020E6100000E750A7B841C952C0773E8F93BA044440,0101000020110F00000A8D97A901E95FC1ACDE141424955241,332178,2018.0,201835067800,0411,2018-08-10,21:03:00,B,M,28,arm,N,N,N,5500 BLOCK OLD YORK RD,0,-75.14463631,40.03694386,35,0,1,0,40.03694386,-75.14463631
0101000020E610000078FBA4C10ACD52C02B85C46695FB4340,0101000020110F0000CDBD87AA6FEF5FC17F024369008B5241,332179,2018.0,201812037140,0411,2018-08-20,21:53:00,B,M,26,head,N,N,N,700 BLOCK N PRESTON ST,0,-75.20378151,39.96549688,12,0,1,0,39.96549687,-75.20378152
0101000020E6100000E1076B8CABCE52C006C11D8745FB4340,0101000020110F0000355A22A133F25FC1FDAA26E7A78A5241,332180,2018.0,201819068623,0411,2018-08-20,23:30:00,B,M,15,chest,N,N,N,100 BLOCK N CONESTOGA ST,0,-75.22922049,39.96305932,19,0,1,0,39.96305932,-75.22922049
0101000020E6100000BFC6E4C322C752C0814A4B9BE0FE4340,0101000020110F0000C3B49B6567E55FC1C3B354F6A68E5241,332181,2018.0,201824073313,0411,2018-08-21,11:30:00,W,M,38,back,N,N,N,3100 BLOCK AMBER ST,1,-75.1114969,39.99122945,24,0,1,0,39.99122945,-75.1114969
,,332182,2018.0,201839058956,0411,2018-08-22,21:10:00,B,M,20,multi,N,N,N,25TH & CLEARFIELD STS,0,,,39,0,1,0,,
0101000020E61000008795E1AAF8C452C0E4FE1B62D9034440,0101000020110F00001B57C934BAE15FC1E04DBC492A945241,332183,2018.0,201815076587,0411,2018-08-23,20:50:00,B,M,17,multi,N,N,N,5800 BLOCK Oakland St,0,-75.07767746,40.03007151,15,0,1,0,40.03007151,-75.07767746
0101000020E61000008795E1AAF8C452C0E4FE1B62D9034440,0101000020110F00001B57C934BAE15FC1E04DBC492A945241,332184,2018.0,201815076588,0411,2018-08-23,20:50:00,B,M,20,multi,N,N,N,5800 BLOCK Oakland St,0,-75.07767746,40.03007151,15,0,1,0,40.03007151,-75.07767746
0101000020E61000008795E1AAF8C452C0E4FE1B62D9034440,0101000020110F00001B57C934BAE15FC1E04DBC492A945241,332185,2018.0,201815076592,0411,2018-08-23,20:50:00,B,M,23,multi,N,N,N,5800 BLOCK Oakland St,0,-75.07767746,40.03007151,15,0,1,0,40.03007151,-75.07767746
0101000020E61000008795E1AAF8C452C0E4FE1B62D9034440,0101000020110F00001B57C934BAE15FC1E04DBC492A945241,332186,2018.0,201815076593,0411,2018-08-23,20:50:00,B,M,17,hip,N,N,N,5800 BLOCK Oakland St,0,-75.07767746,40.03007151,15,0,1,0,40.03007151,-75.07767746
0101000020E6100000BC2B92E13EC952C0DAEF1EDAA6FD4340,0101000020110F00006DAC91D6FCE85FC1CC2A4D2D4B8D5241,332187,2018.0,201826036627,0411,2018-08-25,23:15:00,B,F,28,hand,N,N,N,2000 BLOCK N 6th St,0,-75.14446296,39.98165442,26,0,1,0,39.98165442,-75.14446296
0101000020E6100000C9863D06CEC852C0391C0A5D91004440,0101000020110F00000795BC233DE85FC1A8A4AFBC86905241,332188,2018.0,201825066794,0411,2018-08-25,03:01:00,B,M,34,thigh,N,N,N,3500 BLOCK N 5th St,0,-75.13757473,40.00443614,25,0,1,0,40.00443614,-75.13757473
0101000020E6100000F96A266365CA52C09570B6F3DC004440,0101000020110F0000CC5D2616F1EA5FC12C92338CDA905241,332189,2018.0,201839059739,0411,2018-08-25,22:30:00,B,M,23,leg,N,N,N,2000 BLOCK W Estaugh St,0,-75.16243819,40.00674292,39,0,1,0,40.00674292,-75.16243819
0101000020E61000007590B67520D052C0D0ACB6AC0CFD4340,0101000020110F0000EA5B8B0EADF45FC13155814BA08C5241,332190,2018.0,201819069503,0411,2018-08-24,17:46:00,B,F,23,neck,N,N,N,6500 BLOCK Lebanon Ave,0,-75.25198119,39.9769493,19,0,1,0,39.9769493,-75.25198119
0101000020E61000006F0D8DA349C952C02CE6733013FF4340,0101000020110F000064307B1C0FE95FC1C1BF2809DF8E5241,332191,2018.0,201825067249,0411,2018-08-26,17:25:00,B,M,15,torso,N,N,N,2700 BLOCK N 8th St,0,-75.14511956,39.99277311,25,0,1,0,39.99277311,-75.14511956
0101000020E610000014C16AF275CB52C09829942205064440,0101000020110F0000664F760EC0EC5FC1FCE1EBC992965241,332192,2018.0,201814072478,0411,2018-08-26,17:50:00,B,M,37,stomach,N,N,N,6300 BLOCK Morton St,0,-75.17907391,40.04703171,14,0,1,0,40.04703171,-75.17907391
0101000020E61000001CCF884E26CC52C0D952EEDB9CF74340,0101000020110F0000D22E159FEBED5FC17AA96C369A865241,332193,2018.0,201817035988,0411,2018-08-25,20:36:00,B,M,30,hand,N,N,N,2700 BLOCK Dickinson St,0,-75.18983806,39.93447446,17,0,1,0,39.93447446,-75.18983806
0101000020E6100000FD1918580BCB52C087191A4F84054440,0101000020110F0000CE421AFB0AEC5FC1F39EFBDD03965241,332194,2018.0,201814072616,0411,2018-08-27,01:44:00,B,M,51,multi,N,N,N,5900 BLOCK Morton St,0,-75.17256739,40.04310025,14,0,1,0,40.04310025,-75.17256739
0101000020E6100000FD1918580BCB52C087191A4F84054440,0101000020110F0000CE421AFB0AEC5FC1F39EFBDD03965241,332195,2018.0,201814072620,0411,2018-08-27,01:44:00,B,M,32,multi,N,N,N,5900 BLOCK Morton St,0,-75.17256739,40.04310025,14,0,1,0,40.04310025,-75.17256739
0101000020E6100000A22CF84489C852C01D05E33B8CFE4340,0101000020110F00005BF2345AC8E75FC1CE2BF76E498E5241,332196,2018.0,201826037080,0411,2018-08-28,21:46:00,W,F,16,knee,N,N,N,2500 BLOCK N Mascher St,1,-75.13337826,39.9886546,26,0,1,0,39.9886546,-75.13337826
0101000020E61000001F35FD446BC352C03753BEF34D044440,0101000020110F00008E8E882F17DF5FC13C5D1696AB945241,332197,2018.0,201815078420,0411,2018-08-28,21:40:00,B,M,34,multi,N,N,N,3200 BLOCK Knorr St,0,-75.0534222,40.03362891,15,0,1,0,40.03362891,-75.05342221
0101000020E6100000C1AD795D18CB52C015809076EDFF4340,0101000020110F000044982F1921EC5FC11B25BA04D18F5241,332198,2018.0,201839060415,0411,2018-08-28,15:40:00,B,M,26,back,N,N,N,2800 BLOCK N 26th St,0,-75.17336213,39.9994343,39,0,1,0,39.9994343,-75.17336213
0101000020E61000009422A60236CC52C0F1DD62556FF74340,0101000020110F0000FFDFA64B06EE5FC1BDB8BDC967865241,332199,2018.0,201817036331,0411,2018-08-28,18:59:00,B,M,18,back,N,N,N,1600 BLOCK S Marston St,0,-75.19079653,39.93308514,17,0,1,0,39.93308513,-75.19079653
0101000020E61000009422A60236CC52C0F1DD62556FF74340,0101000020110F0000FFDFA64B06EE5FC1BDB8BDC967865241,332200,2018.0,201817036340,0411,2018-08-28,18:59:00,B,M,21,finger,N,N,N,1600 BLOCK S Marston St,0,-75.19079653,39.93308514,17,0,1,0,39.93308513,-75.19079653
0101000020E61000009422A60236CC52C0F1DD62556FF74340,0101000020110F0000FFDFA64B06EE5FC1BDB8BDC967865241,332201,2018.0,201817036341,0411,2018-08-28,18:59:00,B,M,15,multi,N,N,N,1600 BLOCK S Marston St,0,-75.19079653,39.93308514,17,0,1,0,39.93308513,-75.19079653
0101000020E61000003B4857024CCE52C0053F60D4A4FB4340,0101000020110F0000DC04A15891F15FC15FD1ED81118B5241,332202,2018.0,201816038409,0411,2018-08-28,15:40:00,B,F,21,leg,N,N,N,5100 BLOCK Funston St,0,-75.22338923,39.9659677,16,0,1,0,39.9659677,-75.22338923
0101000020E61000008D9C853D2DCD52C0EDA3CF1E9A054440,0101000020110F00003385913DAAEF5FC117BE7C101C965241,332203,2018.0,201814073209,0411,2018-08-29,06:32:00,B,M,47,arm,N,N,N,7100 BLOCK Mount Pleasant Pl,0,-75.20588625,40.04376588,14,0,1,0,40.04376588,-75.20588625
,,332204,2018.0,201824076302,0411,2018-08-29,23:00:00,W,M,24,torso,N,N,N,2800 BLOCK E Lippincott St,0,,,24,0,1,0,,
0101000020E6100000C2BEDF6096C952C0CD4409E1EEFE4340,0101000020110F0000400B0A7691E95FC1CC28AAC8B68E5241,334369,2020.0,202022038093,411,2020-05-29,00:25:00,B,M,27,Multiple,N,N,N,1100 BLOCK W HUNTINGDON ST,0,-75.14980337,39.99166501,22,0,1,0,39.99166501,-75.14980337
0101000020E6100000AF3012149EC952C089E38600DCFE4340,0101000020110F000036D7508A9EE95FC138009FDBA18E5241,334370,2020.0,202022038336,411,2020-05-29,22:50:00,B,F,15,Leg,N,N,N,2500 BLOCK N JESSUP ST,0,-75.15027334,39.99108893,22,0,1,0,39.99108893,-75.15027334
0101000020E6100000AF3012149EC952C089E38600DCFE4340,0101000020110F000036D7508A9EE95FC138009FDBA18E5241,334371,2020.0,202022038339,411,2020-05-29,22:50:00,B,M,33,Head,N,N,N,2500 BLOCK N JESSUP ST,0,-75.15027334,39.99108893,22,0,1,0,39.99108893,-75.15027334
0101000020E6100000AF3012149EC952C089E38600DCFE4340,0101000020110F000036D7508A9EE95FC138009FDBA18E5241,334372,2020.0,202022038337,411,2020-05-29,22:50:00,B,F,17,Abdomen,N,N,N,2500 BLOCK N JESSUP ST,0,-75.15027334,39.99108893,22,0,1,0,39.99108893,-75.15027334
0101000020E610000069BC5BF677C752C0A4A8751363FF4340,0101000020110F00009493E01CF8E55FC16131D898378F5241,334373,2020.0,202024040175,411,2020-05-31,09:10:00,W,M,59,Shoulder,N,N,N,3000 BLOCK POTTER ST,0,-75.11669692,39.99521106,24,0,1,0,39.99521106,-75.11669692
0101000020E610000050A6551D87C752C0D6F2F37468FF4340,0101000020110F0000C86DB5D911E65FC19C42F18F3D8F5241,334374,2020.0,202024040308,411,2020-05-31,17:07:00,B,F,21,Head,N,N,N,700 BLOCK E CLEARFIELD ST,0,-75.11762174,39.99537527,24,0,1,0,39.99537527,-75.11762174
0101000020E610000050A6551D87C752C0D6F2F37468FF4340,0101000020110F0000C86DB5D911E65FC19C42F18F3D8F5241,334375,2020.0,202024040265,411,2020-05-31,17:07:00,B,M,12,Arm,N,N,N,700 BLOCK E CLEARFIELD ST,0,-75.11762174,39.99537527,24,0,1,0,39.99537527,-75.11762174
0101000020E610000050A6551D87C752C0D6F2F37468FF4340,0101000020110F0000C86DB5D911E65FC19C42F18F3D8F5241,334376,2020.0,202024040311,411,2020-05-31,17:07:00,B,M,52,Unknown,N,N,N,700 BLOCK E CLEARFIELD ST,0,-75.11762174,39.99537527,24,0,1,0,39.99537527,-75.11762174
0101000020E610000050A6551D87C752C0D6F2F37468FF4340,0101000020110F0000C86DB5D911E65FC19C42F18F3D8F5241,334377,2020.0,202024040309,411,2020-05-31,17:07:00,W,M,26,Leg,N,N,N,700 BLOCK E CLEARFIELD ST,1,-75.11762174,39.99537527,24,0,1,0,39.99537527,-75.11762174
0101000020E6100000692883DDCFC852C0AD1423C72D014440,0101000020110F0000CE533D4440E85FC1C4C21B2B34915241,334378,2020.0,202025035774,411,2020-05-30,15:06:00,W,M,25,Leg,N,N,N,3800 BLOCK N FAIRHILL ST,1,-75.13768709,40.00920953,25,0,1,0,40.00920953,-75.13768709
0101000020E6100000264E30947AC952C062DCAA77FAFE4340,0101000020110F00002E12A23D62E95FC1A12A53A1C38E5241,334379,2020.0,202026020487,411,2020-05-29,01:11:00,B,M,14,Chest,N,N,N,2600 BLOCK GERMANTOWN AVE,0,-75.14810662,39.99201867,26,0,1,0,39.99201866,-75.14810662
0101000020E6100000B51AAFCCDDC952C0ED293927F6024440,0101000020110F0000DC2DEEC60AEA5FC1DA6087432E935241,334380,2020.0,202035044050,411,2020-05-29,21:09:00,B,M,22,Leg,N,N,N,4500 BLOCK N BOUVIER ST,0,-75.15416257,40.023137,35,0,1,0,40.023137,-75.15416257
0101000020E61000008B20A54418CA52C0AB05F69848014440,0101000020110F00008BB584176EEA5FC174BC33E851915241,334381,2020.0,202039035918,411,2020-05-30,23:10:00,B,M,30,Leg,N,N,N,1800 BLOCK W ERIE AVE,0,-75.15773121,40.010028,39,0,1,0,40.010028,-75.15773121
0101000020E61000003108EE382CCE52C0C3B81B44EBF74340,0101000020110F00001DD56A5A5BF15FC1E7CE2B0FF1865241,334382,2020.0,202012044873,411,2020-06-01,08:36:00,B,M,30,Chest,N,N,N,1600 BLOCK S CONSETOGA ST,0,-75.22144912,39.93686725,12,0,1,0,39.93686725,-75.22144912
0101000020E6100000F82EAD9F61C552C07300B33165024440,0101000020110F0000409B237C6CE25FC199E238808D925241,334383,2020.0,202015044466,411,2020-06-01,15:13:00,B,M,26,Leg,N,N,N,4800 BLOCK OXFORD ST,0,-75.08408348,40.0187132,15,0,1,0,40.0187132,-75.08408348
0101000020E6100000864A8E013ACF52C0B9C51DEB39FB4340,0101000020110F00009D6CA29B25F35FC1106DEF099B8A5241,334384,2020.0,202019036732,411,2020-06-01,00:12:00,B,M,50,Multiple,N,N,N,0 BLOCK N HOBART ST,0,-75.23791541,39.96270503,19,0,1,0,39.96270503,-75.23791541
0101000020E6100000864A8E013ACF52C0B9C51DEB39FB4340,0101000020110F00009D6CA29B25F35FC1106DEF099B8A5241,334385,2020.0,202019036732,411,2020-06-01,00:12:00,B,M,35,Buttocks,N,N,N,0 BLOCK N HOBART ST,0,-75.23791541,39.96270503,19,0,1,0,39.96270503,-75.23791541
0101000020E6100000864A8E013ACF52C0B9C51DEB39FB4340,0101000020110F00009D6CA29B25F35FC1106DEF099B8A5241,334386,2020.0,202019036732,411,2020-06-01,00:12:00,B,M,17,Hand,N,N,N,0 BLOCK N HOBART ST,0,-75.23791541,39.96270503,19,0,1,0,39.96270503,-75.23791541
0101000020E6100000339ECE3673CA52C0070B065B95FE4340,0101000020110F000025109D9208EB5FC11681778B538E5241,334387,2020.0,202022039179,411,2020-06-01,22:21:00,B,M,31,Multiple/Hea,N,N,N,2300 BLOCK N GRATZ ST,0,-75.16328211,39.98893297,22,0,1,0,39.98893297,-75.16328211
0101000020E6100000A1CF0D6E27CA52C0360AA41FE8004440,0101000020110F000041667BD887EA5FC1529546EFE6905241,334388,2020.0,202039020802,411,2020-03-21,16:41:00,B,M,18,Multiple,N,N,N,1800 BLOCK W TIOGA ST,0,-75.15865662,40.00708385,39,0,1,0,40.00708385,-75.15865661
0101000020E6100000A1CF0D6E27CA52C0360AA41FE8004440,0101000020110F000041667BD887EA5FC1529546EFE6905241,334389,2020.0,202039020801,411,2020-03-21,16:41:00,B,M,20,Multiple,N,N,N,1800 BLOCK W TIOGA ST,0,-75.15865662,40.00708385,39,0,1,0,40.00708385,-75.15865661
0101000020E610000083B7CD75D6C152C07F34F7EB29054440,0101000020110F00003C5D899367DC5FC1252E54989F955241,334390,2020.0,202015025871,411,2020-03-21,20:38:00,W,M,39,Pelvis,N,N,N,7900 BLOCK CHARLES ST,0,-75.0287146,40.04034185,15,0,1,0,40.04034185,-75.02871461
0101000020E61000008DCD75B73EC852C0F9147CAA75FF4340,0101000020110F0000A27D8CB749E75FC15BEBBE344C8F5241,334391,2020.0,202024022099,411,2020-03-20,22:43:00,W,M,41,Leg,N,N,N,3000 BLOCK N WATER ST,1,-75.12882792,39.99577838,24,0,1,0,39.99577838,-75.12882792
0101000020E61000003649E29B9CCE52C0F41D577EF4FB4340,0101000020110F0000112FC7401AF25FC1175A82C9698B5241,334392,2020.0,202019022698,411,2020-03-20,23:00:00,B,M,17,Arm,N,N,N,5400 BLOCK PENNSGROVE ST,0,-75.22830865,39.96839885,19,0,1,0,39.96839885,-75.22830865
0101000020E610000068AB581DB5CB52C0A4D51C62B4F64340,0101000020110F00000EB5695A2BED5FC1FF541BBB98855241,334393,2020.0,202001010410,411,2020-03-24,17:41:00,B,M,24,Multiple,N,N,N,2200 BLOCK MCKEAN ST,0,-75.18292936,39.92737986,01,0,1,0,39.92737986,-75.18292936
0101000020E6100000FEECCBC2ECCE52C04278D57FADF74340,0101000020110F00007E4B3766A2F25FC1AF62CCA4AC865241,334394,2020.0,202012025076,411,2020-03-24,21:16:00,B,M,16,Leg,N,N,N,1700 BLOCK S 60TH ST,0,-75.23320074,39.93498228,12,0,1,0,39.93498228,-75.23320074
0101000020E6100000E535655DD2CA52C0489AAA41B9F74340,0101000020110F0000D2782032AAEB5FC197A395AAB9865241,334525,2018.0,201817046213,3006,2018-11-08,19:33:00,B,M,16,multi,N,N,N,1200 BLOCK S 15th St,0,-75.16908965,39.93534108,17,0,1,0,39.93534108,-75.16908965
0101000020E6100000E535655DD2CA52C0489AAA41B9F74340,0101000020110F0000D2782032AAEB5FC197A395AAB9865241,334526,2018.0,201817046213,3006,2018-11-08,19:33:00,B,M,20,multi,N,N,N,1200 BLOCK S 15th St,0,-75.16908965,39.93534108,17,0,1,0,39.93534108,-75.16908965
0101000020E6100000A3B21F3193CF52C04EBAEB74B9FB4340,0101000020110F0000D1A75919BDF35FC196687D5D288B5241,334527,2018.0,201819092072,3006,2018-11-14,03:47:00,B,F,22,leg,N,N,N,200 BLOCK Horton St,0,-75.24335888,39.96659719,19,0,1,0,39.96659719,-75.24335888
0101000020E61000009813D5D7CAC852C03C69E1B28AFF4340,0101000020110F000050F861BC37E85FC1B9EFFD85638F5241,334528,2018.0,201825090871,3006,2018-11-17,00:01:00,B,M,49,head,N,N,N,400 BLOCK W Indiana Ave,0,-75.13738056,39.99642025,25,0,1,0,39.99642025,-75.13738056
0101000020E6100000A9A67FA463CA52C05FE003850BFF4340,0101000020110F0000B7AB771FEEEA5FC1A7509088D68E5241,334529,2018.0,201822095577,3006,2018-11-28,23:37:00,B,M,21,shoulder,N,N,N,2500 BLOCK Gratz St,0,-75.1623317,39.99253905,22,0,1,0,39.99253905,-75.1623317
0101000020E6100000765E5B26E0C452C01972AE5915024440,0101000020110F00008E787A8F90E15FC1F4B8EAF434925241,334530,2018.0,201815108531,3006,2018-12-03,20:43:00,B,M,18,back,N,N,N,1800 BLOCK Harrison St,0,-75.07618102,40.01627656,15,0,1,0,40.01627656,-75.07618102
0101000020E6100000765E5B26E0C452C01972AE5915024440,0101000020110F00008E787A8F90E15FC1F4B8EAF434925241,334531,2018.0,201815108531,3006,2018-12-03,20:43:00,B,M,27,shoulder,N,N,N,1800 BLOCK Harrison St,0,-75.07618102,40.01627656,15,0,1,0,40.01627656,-75.07618102
0101000020E610000096EFB65E55CD52C063A0C618B3F84340,0101000020110F000068B69E67EEEF5FC12DBDDB69CE875241,334532,2018.0,201818078141,3006,2018-12-09,19:46:00,B,M,20,abdom,N,N,N,4600 BLOCK Linmore Ave,0,-75.20833557,39.9429656,18,0,1,0,39.9429656,-75.20833557
0101000020E610000035A8AA8EA4CF52C0EED9E7EF2DFB4340,0101000020110F0000AF518D98DAF35FC102793CC38D8A5241,334533,2018.0,201818080751,3006,2018-12-22,02:11:00,B,M,36,stomach,N,N,N,6100 BLOCK MARKET ST,0,-75.24441878,39.96233939,18,0,1,0,39.96233939,-75.24441878
0101000020E6100000237CB5C486C852C086881F8CEDFF4340,0101000020110F0000E5F0A81AC4E75FC18EF3A01CD18F5241,334534,2018.0,201825099590,3006,2018-12-21,23:16:00,W,F,33,shoulder,N,N,N,3200 BLOCK N 2ND ST,0,-75.13322561,39.99943687,25,0,1,0,39.99943687,-75.13322561
0101000020E61000000B065B1576CA52C02B49644072FE4340,0101000020110F00009F6851720DEB5FC19ABED5A12C8E5241,334535,2018.0,201822103800,3006,2018-12-27,00:38:00,B,M,28,chest,N,N,N,2200 BLOCK N Gratz St,0,-75.16345724,39.98786168,22,0,1,0,39.98786168,-75.16345724
0101000020E61000005B93B06776C752C0F907997D01004440,0101000020110F000092D2B277F5E55FC11691F538E78F5241,334536,2019.0,201925001674,3006,2019-01-07,03:10:00,W,F,32,arm,N,N,N,700 BLOCK E Ontario St,0,-75.11660187,40.00004549,25,0,1,0,40.00004549,-75.11660187
0101000020E6100000E68B836CD5C952C0CAFCA36FD2FF4340,0101000020110F0000D374D78CFCE95FC105E9F10DB38F5241,334537,2019.0,201939005155,3006,2019-01-18,15:33:00,B,M,25,multi,N,N,N,3000 BLOCK N Broad St,0,-75.15365136,39.99860951,39,0,1,0,39.9986095,-75.15365136
0101000020E6100000747C932A3AC852C0EB0EB5AF34004440,0101000020110F00005C42E0FC41E75FC14952A7FB1F905241,334538,2019.0,201925019809,3006,2019-03-12,23:04:00,W,M,36,multi,N,N,N,100 BLOCK E Ontario St,1,-75.12855019,40.00160786,25,0,1,0,40.00160786,-75.12855019
0101000020E6100000747C932A3AC852C0EB0EB5AF34004440,0101000020110F00005C42E0FC41E75FC14952A7FB1F905241,334539,2019.0,201925019809,3006,2019-03-12,23:04:00,W,M,55,arm,N,N,N,100 BLOCK E Ontario St,1,-75.12855019,40.00160786,25,0,1,0,40.00160786,-75.12855019
0101000020E61000003BF4A30263C852C08545A05541FF4340,0101000020110F000003AF8D5D87E75FC14779F830128F5241,334540,2019.0,201925023799,3006,2019-03-26,18:00:00,W,M,24,multi,N,N,N,2900 BLOCK Howard St,1,-75.13104311,39.99418135,25,0,1,0,39.99418135,-75.13104311
0101000020E61000003BF4A30263C852C08545A05541FF4340,0101000020110F000003AF8D5D87E75FC14779F830128F5241,334541,2019.0,201925023799,3006,2019-03-26,18:00:00,W,M,38,multi,N,N,N,2900 BLOCK Howard St,1,-75.13104311,39.99418135,25,0,1,0,39.99418135,-75.13104311
0101000020E610000082D6704F5FC952C0B5FD2B2BCDFF4340,0101000020110F0000725A21EC33E95FC19AFAF336AD8F5241,334542,2019.0,201925024639,3006,2019-03-29,22:56:00,B,M,38,multi,N,N,N,3000 BLOCK N 10th St,0,-75.14644228,39.99844875,25,0,1,0,39.99844875,-75.14644228
0101000020E610000043EDD01303C552C04D22EB3E3A024440,0101000020110F0000C95672E3CBE15FC117C645DF5D925241,334543,2019.0,201915029193,3006,2019-03-30,17:09:00,W,F,22,back,N,N,N,1700 BLOCK Harrison St,0,-75.07831283,40.01740252,15,0,1,0,40.01740252,-75.07831283
0101000020E6100000C183F2802ACD52C0C20290C1A7FC4340,0101000020110F0000C96D9297A5EF5FC14E70D372308C5241,334544,2019.0,201916013394,3006,2019-03-31,01:44:00,B,M,38,leg,N,N,N,4000 BLOCK W Girard Ave,0,-75.20571922,39.97386951,16,0,1,0,39.97386951,-75.20571922
0101000020E6100000B35D2548FAC952C0ECA9EEF477024440,0101000020110F00005A5636283BEA5FC14275F74EA2925241,334545,2019.0,201939028343,3006,2019-04-06,15:44:00,B,M,17,hip,N,N,N,4300 BLOCK Germantown Ave,0,-75.15590099,40.0192858,39,0,1,0,40.01928579,-75.15590099
0101000020E6100000E4CD4CF6F0CA52C0492AB6F67CFD4340,0101000020110F000058871A2BDEEB5FC155E7BEBF1C8D5241,334546,2019.0,201922032744,3006,2019-04-21,22:31:00,B,M,27,multi,N,N,N,2200 BLOCK Cecil B Moore Ave,0,-75.17095716,39.98037609,22,0,1,0,39.98037609,-75.17095716
0101000020E61000007505BA7AFECA52C0E6ACB26361FE4340,0101000020110F0000A089FC20F5EB5FC18CF5DBF0198E5241,334547,2019.0,201922033993,3006,2019-04-26,11:21:00,B,M,35,back,N,N,N,2300 BLOCK Edgley St,0,-75.17178219,39.98734709,22,0,1,0,39.98734709,-75.17178219
0101000020E610000093B87D45ADC952C0B1376BCF30FB4340,0101000020110F0000CB19E358B8E95FC11AFB3CF2908A5241,334548,2019.0,201906022904,3006,2019-05-17,20:19:00,B,F,24,multi,N,N,N,700 BLOCK Green St,0,-75.15120065,39.96242707,06,0,1,0,39.96242707,-75.15120065
0101000020E61000000142778B38CA52C0BF2BA30D17FE4340,0101000020110F00001644C0EAA4EA5FC1B009D18AC78D5241,334549,2019.0,201922042970,3006,2019-05-23,21:23:00,B,F,35,abdomen,N,N,N,1500 BLOCK W Diamond St,0,-75.15970122,39.98507853,22,0,1,0,39.98507853,-75.15970122
0101000020E6100000FA2EBECBF9CB52C0FC1CDD10FCFD4340,0101000020110F0000AFFAE103A0ED5FC187B1E5A0A98D5241,334550,2019.0,201922045770,3006,2019-05-31,21:00:00,B,M,26,multi,N,N,N,3200 BLOCK Montgomery Ave,0,-75.18712133,39.98425494,22,0,1,0,39.98425494,-75.18712133
0101000020E6100000DD248AB9B9C652C01CC0CF7654FE4340,0101000020110F00009ACEA2F9B4E45FC1D2380B9D0B8E5241,334551,2019.0,201924054275,3006,2019-06-12,22:26:00,B,M,16,multi,N,N,N,2500 BLOCK E Allegheny Ave,0,-75.10508574,39.98695264,24,0,1,0,39.98695264,-75.10508574
